,Name,Address,Rating,Money,lat,lng,District
0,Хлеб и вино,"просп. Вернадского, 94, корп. 8, ЖК «Миракс-парк»",,2.0,55.652674,37.476402,Тропарёво-Никулино
1,Beer Happens,"Сретенка, 24/2, стр. 1",9.1,2.0,55.769838,37.632889,Красносельский
2,Винный базар на Комсомольском,"Комсомольский просп., 14/1, корп. 2",9.1,2.0,55.731374,37.589985,Хамовники
4,Mitzva Bar,"Пятницкая, 3/4, стр. 1",9.0,2.0,55.745427,37.627165999999995,Замоскворечье
5,Боэми,"Рочдельская, 11/5",9.0,3.0,55.756462,37.569953000000005,Пресненский
6,Lumberjack Bar,"Б.Спасоглинищевский пер., 3, стр. 5",9.0,3.0,55.756437,37.635188,Басманный
7,Бутчер,"Лубянский пр., 15/2",9.0,4.0,55.756817000000005,37.632305,Басманный
8,Лейка,"Головинское ш., 5, ТЦ «Водный», 3 этаж",9.0,2.0,55.84024,37.492024,Головинский
9,Pinzeria by Bontempi,"Б.Знаменский пер., 2, стр. 3",8.9,2.0,55.745934,37.602517,Хамовники
10,Энтузиаст,"Столешников пер., 7, стр. 5",8.9,1.0,55.763787,37.614186,Тверской
11,Натахтари на Маросейке,"Маросейка, 6/8, стр. 1",8.9,2.0,55.757491,37.635404,Басманный
12,Let's Rock Bar,"Кузнецкий Мост, 4",8.9,2.0,55.760879,37.616764,Тверской
13,AQ Chicken,"Трехпрудный пер., 11/13, стр. 2",8.9,3.0,55.765331,37.595546,Пресненский
14,Scrocchiarella,"Покровка, 1/13/6, стр. 2",8.8,2.0,55.758615,37.639024,Басманный
15,Дарбази,"Николоямская, 16/2",8.8,3.0,55.747074,37.650496000000004,Таганский
16,Wine Religion,"Мичуринский просп., 16",8.8,3.0,55.703118999999994,37.506046999999995,Раменки
17,Хинкали Point,"Забелина, 1",8.8,1.0,55.754557,37.637461,Басманный
18,Субботица,"Садовая-Кудринская, 8/12",8.8,3.0,55.76093,37.586490999999995,Пресненский
19,Сахли,"Б.Каретный пер., 6",8.8,3.0,55.770531999999996,37.616440000000004,Тверской
20,Китайская грамота,"Сретенка, 1",8.8,3.0,55.766532,37.630544,Мещанский
22,Torro Grill,"3-й Крутицкий пер., 11",8.8,3.0,55.731262,37.666036,Южнопортовый
23,I Like Wine,"Покровка, 16",8.8,2.0,55.759156999999995,37.645708,Басманный
24,Лепим и варим,"Столешников пер., 9, стр. 1",8.8,1.0,55.763189000000004,37.615111,Тверской
25,One Teaspoon Café,"Яузский б-р, 14/8",8.7,2.0,55.75095,37.643615000000004,Таганский
26,Glenuill,"Садовая-Самотечная, 20, стр. 1",8.7,3.0,55.773231,37.619459,Тверской
27,Too Much Beer & Wine,"М.Гнездниковский пер., 12",8.7,2.0,55.762525,37.606703,Тверской
28,AQ Kitchen,"Б.Грузинская, 69",8.7,3.0,55.773975,37.586086,Тверской
29,Björn,"Пятницкая, 3/4, стр. 1",8.7,3.0,55.745427,37.627165999999995,Замоскворечье
30,Torro Grill,"Ленинградское ш., 16а, стр. 4, ТЦ «Метрополис»",8.7,3.0,55.823211,37.497468,Войковский
31,Рынок и общепит,"Весковский пер., 7",8.7,1.0,55.778921999999994,37.600343,Тверской
32,Даблби,"Милютинский пер., 3",8.7,1.0,55.761573,37.631469,Красносельский
33,Сайгон,"Б.Грузинская, 39",8.7,2.0,55.77074,37.581334000000005,Пресненский
34,Укубар,"Покровка, 17",8.7,2.0,55.759471,37.645537,Басманный
36,Dizengof 99,"1-й Гончарный пер., 4, стр. 2",8.7,2.0,55.74166700000001,37.652014,Таганский
37,7 сэндвичей,"4-й Сыромятнический пер., 3/5, стр. 3",8.7,1.0,55.755008,37.667303000000004,Басманный
38,Molon Lave,"Б.Грузинская, 39",8.7,2.0,55.77074,37.581334000000005,Пресненский
39,Корё,"Орджоникидзе, 11, стр. 9",8.7,2.0,55.70899300000001,37.593309000000005,Донской
41,Plum,"Серпуховский Вал, 17",8.7,3.0,55.711240000000004,37.612173,Даниловский
42,Noor,"Тверская, 23",8.7,3.0,55.766693999999994,37.600945,Тверской
43,Savva,"Театральный пр., 2, гостиница «Метрополь»",8.7,4.0,55.758448,37.62166,Тверской
44,Практика by Darvin,"Б.Грузинская, 37, стр. 2",8.7,2.0,55.769388,37.580795,Пресненский
45,Max Brenner,"Цветной б-р, 2, БЦ «Легенда Цветного», 1 этаж",8.7,1.0,55.768025,37.623483,Мещанский
46,Chicha,"Новинский б-р, 31, ТДЦ «Новинский», 1 этаж",8.7,3.0,55.757830000000006,37.582511,Пресненский
49,Aura Bar,"Новочеркасский б-р, 57, корп. 2",,2.0,55.647534,37.742447,Марьино
51,Avenue,"Смоленская, 8, гостиница Azimut Moscow Smolenskaya",,3.0,55.746233,37.5804,Арбат
55,Aviv Express,"Богословский пер., 5",,1.0,55.762485,37.598878000000006,Пресненский
56,Azora Coffee & Cheese,"Бауманская, 9",,1.0,55.776654,37.677104,Басманный
58,Baccarat Cristal Room,"Никольская, 19–21, 2 этаж",,4.0,55.758954,37.623852,Тверской
60,Bai Kalyan Café,"Волгоградский просп., 32, корп. 12",,2.0,55.72164,37.69304,Южнопортовый
61,Bake'n'Roll,"Академика Королева, 10",,3.0,55.823393,37.619899,Останкинский
62,Bakery by Men,"просп. Вернадского, 6, ТЦ «Капитолий Вернадского»",,1.0,55.69195799999999,37.527956,Раменки
63,Bakery Home,"Оболенский пер., 9, корп. 1",,1.0,55.73036,37.57925,Хамовники
64,Baklajan,"Кутузовский просп., 57",,3.0,55.727927,37.476169,Фили-Давыдково
65,Bang Bang,"Рождественка, 6/9/20, стр. 1",,1.0,55.761182999999996,37.623834,Мещанский
70,Barabar,"Новочеремушкинская, 12",,2.0,55.686471999999995,37.583436,Академический
72,Bar B.Q.,"Кржижановского, 22, стр. 1",,2.0,55.67769200000001,37.574363,Академический
73,Bar BQ Café Метрополис,"Ленинградское ш., 16а, стр. 4, ТЦ «Метрополис»",,2.0,55.823211,37.497468,Войковский
74,Bar BQ Café на Манежной,"Манежная пл., 1, стр. 2, ТЦ «Охотный Ряд»",,2.0,55.755773,37.614608000000004,Тверской
76,Bar by Smoothie & Coffee,"Пресненская наб., 6, стр. 2, БЦ «Башня Империя», –1 этаж",,2.0,55.748143000000006,37.540488,Пресненский
77,Barin,"Б.Якиманка, 24, гостиница «Президент-отель», 14 этаж",,3.0,55.737441000000004,37.612973,Якиманка
78,Barista Café,"В.Красносельская, 3а, ТДК «Тройка»",,1.0,55.785513,37.665408,Красносельский
79,Bar Novi,"Херсонская, 43",,2.0,55.659231000000005,37.560835,Черёмушки
80,Baron de Makaron,"Щукинская, 42, ТРК «Щука»",,2.0,55.80946899999999,37.464571,Щукино
81,Barrel,"4-й Сыромятнический пер., 1/8, стр. 6, ЦСИ «Винзавод»",,2.0,55.755697,37.664518,Басманный
82,Barrique,"Благовещенский пер., 10, стр. 2",,2.0,55.767499,37.598591,Тверской
83,Barton 1816,"Станиславского, 15",,3.0,55.744916,37.661392,Таганский
85,Bazar,"Кировоградская, 13а, ТЦ Columbus",,1.0,55.612182,37.607026,Чертаново Центральное
87,BB & Burgers,"Н.Арбат, 17",,1.0,55.752141,37.590713,Арбат
88,BB & Burgers,"Пресненская наб., 6, стр. 2, БЦ «Башня Империя»",,1.0,55.748143000000006,37.540488,Пресненский
89,BB & Burgers,"Пятницкая, 25, стр. 1д",,1.0,55.741521,37.628809999999994,Замоскворечье
91,BB & Burgers,"Маросейка, 4/2, стр. 1",,1.0,55.757408999999996,37.633688,Басманный
94,BB & Burgers,"Усачева, 26",,1.0,55.727374,37.567698,Хамовники
96,Бардак,"Маросейка, 6/8, cтр. 1",8.6,2.0,55.757491,37.635404,Басманный
97,Burger Heroes,"Б.Ордынка, 19, стр. 1",8.6,1.0,55.741586,37.625217,Замоскворечье
99,Пипл & Паста,"Цветной б-р, 25, стр. 1",8.6,1.0,55.772861,37.620645,Тверской
100,Пушкин,"Тверской б-р, 26а",8.6,4.0,55.7637,37.605032,Тверской
101,Батони,"Комсомольский просп., 42, стр. 3",8.6,2.0,55.721447,37.572468,Хамовники
102,15 Kitchen + Bar,"Пожарский пер., 15",8.6,3.0,55.741744,37.600675,Хамовники
104,Пита & Сувлаки,"Садовая-Самотечная, 15/1",8.6,1.0,55.774325,37.61848,Тверской
105,Люди как люди,"Солянский туп., 1/4",8.6,1.0,55.753823,37.63606,Таганский
106,Touché,"Рочдельская, 15, стр. 22, БЦ «Трехгорная мануфактура»",8.6,2.0,55.755586,37.562748,Пресненский
107,Простые вещи New Vintage,"1-я Брестская, 41",8.6,2.0,55.773262,37.587533,Тверской
108,Обломов,"1-й Монетчиковский пер., 5",8.6,4.0,55.73225600000001,37.628316,Замоскворечье
109,Шотландская клетка,"Сретенка, 27/29",8.6,3.0,55.770988,37.632160999999996,Мещанский
111,Martinez,"Сретенка, 1",8.6,3.0,55.766532,37.630544,Мещанский
112,Tehnikum,"Б.Дмитровка, 7/5, стр. 2",8.6,2.0,55.760849,37.614743,Тверской
113,Рецептор,"Чистопрудный б-р, 23, стр. 2",8.5,2.0,55.76056,37.647154,Басманный
114,Meatless,"Тверская, 20, стр. 1",8.5,2.0,55.766643,37.602373,Тверской
115,Чайная высота,"Покровка, 27, стр. 1",8.5,1.0,55.760194999999996,37.648097,Басманный
116,Marketplace,"Мясницкая, 13, стр. 3",8.5,1.0,55.762622,37.63394,Красносельский
117,Beer & Brut,"Покровка, 26/1",8.5,2.0,55.759831000000005,37.649121,Басманный
119,Pivbar,"1-я Тверская-Ямская, 2, стр. 1",8.5,2.0,55.770284,37.597118,Тверской
120,Хитрые люди,"4-й Сыромятнический пер., 1/8, стр. 10, ЦСИ «Винзавод»",8.5,2.0,55.75565699999999,37.665865999999994,Басманный
121,Семифреддо,"Тимура Фрунзе, 11, стр. 55",8.5,4.0,55.73515,37.586634000000004,Хамовники
122,Hills,"Крылатские Холмы, 7, корп. 2",8.5,3.0,55.74878199999999,37.422988000000004,Крылатское
123,Никуда не едем,"Рочдельская, 15, стр. 8, БЦ «Трехгорная мануфактура»",8.5,3.0,55.756802,37.564751,Пресненский
125,Колбасофф,"Маршала Бирюзова, 32, ТРЦ «Пятая авеню», 3 уровень",8.5,2.0,55.799588,37.483022999999996,Щукино
126,Чайковский,"Триумфальная пл., 4/31, в здании Концертного зала им. Чайковского",8.5,3.0,55.768765,37.595940999999996,Тверской
127,Иерусалим,"Б.Бронная, 6, стр. 3",8.5,2.0,55.760220999999994,37.598151,Пресненский
128,Friends & Family,"Ленинская Слобода, 26",8.5,2.0,55.710124,37.654601,Даниловский
129,Кимчи,"Бутырский Вал, 5, БЦ «Ямская-центр», 1 этаж",8.5,2.0,55.778558,37.584568,Тверской
130,Andiamo,"Строителей, 4, стр. 2",8.5,3.0,55.687096,37.5357,Гагаринский
131,Adri BBQ Wine,"Лесная, 7, БЦ «Белые сады»",8.5,3.0,55.778668999999994,37.587964,Тверской
132,Mushrooms,"Б.Якиманка, 22, ТЦ «Гименей», 2 этаж",8.5,3.0,55.738216,37.614545,Якиманка
133,The Tipsy Pub,"Сущевская, 9",8.4,2.0,55.780552,37.601591,Тверской
134,Rumor Bar,"Покровка, 21–23/25, стр. 1",8.4,2.0,55.759689,37.64719,Басманный
136,Rico,"Ружейный пер., 6, стр. 1",8.4,3.0,55.743958,37.581056,Хамовники
137,Correa's,"Б.Ордынка, 40, стр. 2",8.4,2.0,55.736183999999994,37.622971,Якиманка
138,Турандот,"Тверской б-р, 26, стр. 3",8.4,4.0,55.763335999999995,37.604628000000005,Тверской
140,BBcafé,"Скатертный пер., 13",8.4,2.0,55.755753000000006,37.594646999999995,Пресненский
142,Ароматная река,"наб. Академика Туполева, 15, стр. 2",8.4,2.0,55.762186,37.681182,Басманный
144,BB & Burgers,"56-й км МКАД, ТРЦ «Vegas Кунцево»",,1.0,55.74261,37.398482,Кунцево
145,BB & Burgers,"М.Дмитровка, 4",,1.0,55.767295999999995,37.60673,Тверской
146,BB & Burgers,"Мясницкая, 18",,1.0,55.761138,37.632727,Басманный
147,BB & Burgers,"Ходынский б-р, 4, ТРЦ «Авиапарк», 3 этаж",,1.0,55.790464,37.530409000000006,Хорошёвский
148,BB & Burgers,"1-я Тверская-Ямская, 4",,1.0,55.771428,37.594234,Тверской
149,BBC,"Б.Новодмитровская, 12, стр. 16",,2.0,55.798308,37.585287,Бутырский
150,BBFan 24,"Мясницкая, 24/7, стр. 1",,2.0,55.762443999999995,37.635593,Басманный
151,BB Grill,"Автозаводская, 18, ТРЦ «Ривьера»",,3.0,55.705452,37.637749,Даниловский
152,BBQ Land,"66-й км МКАД, пересечение с Волоколамским ш., ТРЦ «Vegas Крокус-сити», 3 этаж",,1.0,55.814836,37.39046,Строгино
153,Bear Burgers,"Преображенская пл., 12",,1.0,55.794264,37.713817999999996,Преображенское
154,Beasty Burgers,"Паромная, 11/31",,1.0,55.635736,37.764097,Братеево
155,Beaumonde Lounge,"Никольская, 25, ТЦ «Наутилус»",,3.0,55.759091000000005,37.624777,Тверской
156,Beaver Bar,"Усиевича, 12/14",,2.0,55.806321999999994,37.52828,Аэропорт
157,Bébé de la mer,"Петровка, 30/7",,3.0,55.768071,37.614401,Тверской
158,Beef & Beer,"Петрозаводская, 11, корп. 1",,2.0,55.865908999999995,37.49435,Ховрино
159,Beefhouse,"Бутырский Вал, 5",,3.0,55.778558,37.584568,Тверской
160,Beef Time,"просп. Мира, 102, стр. 1а",,3.0,55.800205000000005,37.636653,Алексеевский
161,Beef Рояль,"Пречистенская наб., 13, стр. 1",,4.0,55.738029000000004,37.603963,Хамовники
163,Beerburgerpub,"Ленинский просп., 70/11",,1.0,55.687406,37.543264,Гагаринский
164,Beerburgerpub,"1-я ул. Бухвостова, 12/11, корп. 53",,1.0,55.796997,37.713683,Преображенское
166,Beer & Go,"Новослободская, 52",,2.0,55.787690000000005,37.593785,Тверской
167,Beer & Go,"Коштоянца, 20, корп. 1",,2.0,55.674352,37.477777,Тропарёво-Никулино
169,Донна Маргарита,"ул. 1905 года, 2, стр. 1",8.4,3.0,55.755353,37.560071,Пресненский
170,Mr. Ливанец,"Глинищевский пер., 3",8.4,2.0,55.763265000000004,37.609775,Тверской
171,Бутчер,"Цветной б-р, 2, БЦ «Легенда Цветного»",8.4,4.0,55.768025,37.623483,Мещанский
172,Кондитерская «Пушкин»,"Тверской б-р, 26а",8.4,2.0,55.7637,37.605032,Тверской
173,Рецептор,"Б.Козихинский пер., 10",8.4,2.0,55.762885,37.597359999999995,Пресненский
174,Cutfish,"Б.Козихинский пер., 17",8.4,3.0,55.763949,37.595393,Пресненский
175,Марукамэ,"Пятницкая, 29/8",8.4,1.0,55.74094300000001,37.628756,Замоскворечье
177,Casa di famiglia,"Металлургов, 7/18",8.4,2.0,55.75735400000001,37.780122999999996,Перово
178,Вай мэ!,"Пятницкий пер., 8, стр. 1",8.4,1.0,55.742879,37.629745,Замоскворечье
180,Ботаника,"Б.Грузинская, 61а",8.4,2.0,55.772183,37.584334999999996,Пресненский
181,Грабли,"Тверская, 18, корп. 1",8.4,1.0,55.766147,37.604240999999995,Тверской
182,Magnum Wine Bar,"Лесная, 5б, БЦ «Белая площадь»",8.3,3.0,55.778273999999996,37.586859000000004,Тверской
183,Хачапури,"Украинский б-р, 7",8.3,2.0,55.747774,37.566925,Дорогомилово
184,Bar BQ Café на Пятницкой,"Пятницкая, 25, стр. 1д",8.3,2.0,55.741521,37.628809999999994,Замоскворечье
185,Laffa Laffa,"М.Бронная, 4",8.3,2.0,55.759552,37.597477000000005,Пресненский
186,Дружба,"Панкратьевский пер., 2",8.3,1.0,55.771666,37.633185,Красносельский
187,Selfie,"Новинский б-р, 31, ТДЦ «Новинский», 2 этаж",8.3,3.0,55.757830000000006,37.582511,Пресненский
189,Апрель,"Б.Спасская, 29",8.3,2.0,55.77636999999999,37.643677000000004,Красносельский
190,Северяне,"Б.Никитская, 12",8.3,3.0,55.756513,37.60646,Пресненский
191,Beer Harbor,"Покровка, 21–23/25, стр. 1",,2.0,55.759689,37.64719,Басманный
192,Beer Loft,"Мневники, 23",,2.0,55.774087,37.478190000000005,Хорошёво-Мнёвники
193,Трын-трава,"Молодогвардейская, 28, корп. 1",8.3,2.0,55.734248,37.418021,Кунцево
195,Beerness,"Серпуховский Вал, 3",,2.0,55.71106700000001,37.618507,Даниловский
197,Beertep Craft Pub,"Адмирала Макарова, 6, стр. 13",,1.0,55.83566,37.490497,Войковский
198,Beer Time,"Сущевская, 19, стр. 4",,1.0,55.781848,37.600747,Тверской
199,Beery Beer,"Ивана Сусанина, 4, корп. 1",,1.0,55.867349,37.526277,Западное Дегунино
200,Bee's Knees Café,"Духовской пер., 17",,1.0,55.704149,37.615857,Донской
201,Belagio,"Соколово-Мещерская, 25",,3.0,55.902868000000005,37.384584999999994,Куркино
203,Bella Napoli,"Медынская, 7а, стр. 1",,2.0,55.5867,37.648070000000004,Бирюлёво Западное
204,Bella pasta,"Красная Пресня, 6/2, стр. 1",,2.0,55.761365000000005,37.574831,Пресненский
205,Bella pasta,"Солянка, 2/6",,2.0,55.753985,37.636671,Таганский
206,Bella vita,"Погонный пр., 3а",,2.0,55.820273,37.700649,Богородское
209,Belochka,"Лесная, 1/2",,2.0,55.776872,37.585386,Тверской
211,Benedict Café,"Пречистенская наб., 15, стр. 1",,2.0,55.738338,37.604726,Хамовники
212,Ben Gunn,"Смоленский б-р, 1/2",,2.0,55.738916,37.584649,Хамовники
214,Bericoni,"Мичуринский просп., Олимпийская деревня, 4, корп. 3",,2.0,55.675352000000004,37.470662,Тропарёво-Никулино
215,Beriozka,"просп. Мира 26, стр. 1",,3.0,55.77796,37.633068,Мещанский
217,Berry Berry Boom,"24-й км МКАД, пересечение с Каширским ш., ТРЦ Vegas",,1.0,55.59399499999999,37.734946,Орехово-Борисово Южное
220,Beverly Hills Diner,"Арбат, 23, стр. 1",,2.0,55.750423,37.595348,Арбат
221,Beverly Hills Diner,"Садовая-Триумфальная, 18–20",,2.0,55.771565,37.602885,Тверской
223,Beverly Hills Diner,"Покровка, 10, стр. 2",,2.0,55.758954,37.644207,Басманный
224,Be Young,"Измайловский Вал, 2",,2.0,55.7836,37.719244,Соколиная Гора
225,BFB Bar,"Нижегородская, 32, стр. 5",,2.0,55.736691,37.693857,Таганский
227,Bibi,"Чистопрудный б-р, 12, стр. 6",,1.0,55.761633999999994,37.64215,Басманный
229,Big Bite Café,"Б.Никитская, 14/2, стр. 6",,1.0,55.756665000000005,37.605795,Пресненский
230,Big Bite Café,"Лесная, 43",,1.0,55.78058299999999,37.590677,Тверской
232,Big Тарталетка,"Б.Полянка, 30",,1.0,55.734151000000004,37.61892,Якиманка
234,Birger,"Семеновская пл., 7, корп. 17",,2.0,55.783605,37.721292,Соколиная Гора
235,Biz Coffee,"Б.Семеновская, 49а, ТЦ «Семеновский пассаж», 1 этаж",,1.0,55.781955,37.715740000000004,Соколиная Гора
236,Bla-Bla Bar,"Лесная, 1/2",,2.0,55.776872,37.585386,Тверской
237,Bla Bla Room,"Ленинградское ш., 16а, стр. 4, ТЦ «Метрополис», 3 этаж",,1.0,55.823211,37.497468,Войковский
239,Black Code,"Садовническая, 42",,2.0,55.744845,37.63668,Замоскворечье
240,Patara Café,"Ермолаевский пер., 7",8.3,3.0,55.764237,37.59047,Пресненский
241,Boston Seafood & Bar,"Лесная, 7, БЦ «Белые сады»",8.3,3.0,55.778668999999994,37.587964,Тверской
242,Gayane's,"2-й Смоленский пер., 1/4",8.3,2.0,55.747023999999996,37.581523,Арбат
243,Молоко,"Б.Дмитровка, 7/5, стр. 5",8.3,2.0,55.760985999999995,37.613889,Тверской
244,AC/DC в Тбилиси,"Крымский Вал, 9, стр. 19, в парке Горького",8.3,1.0,55.725609999999996,37.599615,Якиманка
246,Black Thai,"Б.Путинковский пер., 5",8.3,3.0,55.76719,37.607709,Тверской
247,Chainaya. Tea & Cocktails,"1-я Тверская-Ямская, 29, стр. 1",8.2,3.0,55.776001,37.585188,Тверской
248,Semplice,"Чаплыгина, 6",8.2,2.0,55.763847,37.646031,Басманный
249,I Like Wine 2.0,"Тимура Фрунзе, 11, стр. 19",8.2,2.0,55.735772999999995,37.586715000000005,Хамовники
250,Goodman,"Ленинский просп., 57",8.2,3.0,55.696575,37.561544,Гагаринский
251,Da Pino,"Б.Бронная, 23, стр. 1",8.2,2.0,55.763376,37.601439,Пресненский
252,Friends & Family,"Осенний б-р, 7, корп. 2",8.2,2.0,55.758225,37.405759,Крылатское
253,Андерсон на Островитянова,"Островитянова, 5",8.2,2.0,55.644693999999994,37.493973,Обручевский
255,Goodman,"Трубная пл., 2, ТЦ «Неглинная плаза», 2 этаж",8.2,3.0,55.766491,37.622333000000005,Мещанский
256,Рецептор,"Б.Никитская, 22/2",8.2,2.0,55.7571,37.602948,Пресненский
257,Mandarin Combustible,"М.Черкасский пер., 2",8.2,2.0,55.758396999999995,37.626079,Тверской
258,Эларджи,"Гагаринский пер., 15а",8.2,3.0,55.744323,37.595689,Хамовники
259,Уголек,"Б.Никитская, 12",8.2,3.0,55.756513,37.60646,Пресненский
262,Тарас Бульба,"Моховая, 8, стр. 1",8.2,2.0,55.750631000000006,37.610152,Тверской
263,Чихо,"Кривоколенный пер., 12, стр. 10",8.2,1.0,55.761821,37.636015,Басманный
264,Николай,"Пятницкая, 53",8.2,2.0,55.734866000000004,37.628011,Замоскворечье
266,Высота 5642,"Б.Черкасский пер., 15–17, стр. 1",8.2,3.0,55.756386,37.627454,Тверской
267,"Black Coffee, Please","Зубовский б-р, 16–20, стр. 1",,1.0,55.73836800000001,37.587973,Хамовники
268,Blacklist,"Б.Дмитровка, 20, стр. 1",,2.0,55.762804,37.613808,Тверской
270,Il massimo,"Автозаводская, 4",8.2,2.0,55.710002,37.662721999999995,Даниловский
271,Буфет,"Александра Солженицына, 46",8.2,3.0,55.745720999999996,37.667887,Таганский
272,Blacksmith Irish Pub,"Бутырский Вал, 5",,2.0,55.778558,37.584568,Тверской
274,Black Star Burger,"пл. Киевского Вокзала, 2, ТРЦ «Европейский»",,1.0,55.744631999999996,37.566072,Дорогомилово
275,Цветение сакуры,"Красина, 7, стр. 1",8.2,3.0,55.767072999999996,37.588162,Пресненский
276,Meating,"4-й Сыромятнический пер., 3/5",8.2,1.0,55.755008,37.667303000000004,Басманный
277,Black & White,"Волгоградский просп., 26, стр. 1",,2.0,55.726293999999996,37.680949,Южнопортовый
278,Blanc de blancs,"Люсиновская, 36/50",,2.0,55.72229399999999,37.621534000000004,Замоскворечье
280,Bora Bora,"Ореховый б-р, 14, корп. 3, ТРЦ «Домодедовский»",8.2,2.0,55.609675,37.720106,Орехово-Борисово Южное
281,Андерсон на Страстном,"Страстной б-р, 4",8.2,2.0,55.765387,37.607772,Тверской
282,Bloom-n-Brew,"Ниж.Красносельская, 35, стр. 50",,1.0,55.77468399999999,37.674067,Басманный
284,China Club,"Красина, 21",8.2,3.0,55.768693999999996,37.586104,Пресненский
286,Blueberry Haze,"Луков пер., 10",,1.0,55.7676,37.635143,Красносельский
288,13°,"4-я Тверская-Ямская, 13",8.2,2.0,55.772264,37.597028,Тверской
289,Suzuran,"Сверчков пер., 8",8.2,2.0,55.760226,37.639878,Басманный
290,Воронеж,"Б.Дмитровка, 12/1, стр. 1",8.2,2.0,55.76153299999999,37.614734000000006,Тверской
291,Bob Smoker Bar,"М.Палашевский пер., 6",,2.0,55.7652,37.602705,Тверской
293,Bocconcino,"Кутузовский просп., 57, ТРЦ «Океания», 4 этаж",,3.0,55.727927,37.476169,Фили-Давыдково
294,Bocconcino,"Ленинградское ш., 16, стр. 8",,3.0,55.82164399999999,37.499784999999996,Войковский
295,Zotman Pizza Pie,"Б.Никитская, 23/14/9",8.2,2.0,55.756907999999996,37.599399,Пресненский
296,Torro Grill,"просп. Вернадского, 6, ТЦ «Капитолий Вернадского», 2 этаж",8.1,3.0,55.69195799999999,37.527956,Раменки
297,Bocconcino,"Б.Патриарший пер., 4",,3.0,55.762449,37.591916,Пресненский
298,Bodrum,"Новая Дорога, 11, стр. 6",,2.0,55.77460799999999,37.702498999999996,Басманный
299,Воккер,"Ленинградское ш., 16а, стр. 4, ТЦ «Метрополис»",8.1,1.0,55.823211,37.497468,Войковский
300,Lambic,"Мясницкая, 40а",8.1,3.0,55.766415,37.640596,Басманный
302,Bolognetta,"пл. Киевского Вокзала, 2, ТРЦ «Европейский», 3 этаж",,4.0,55.744631999999996,37.566072,Дорогомилово
303,Bona,"Люблинская, 66/1",,2.0,55.671854,37.739222,Люблино
305,Bonapé,"Кировоградская, 13а, ТЦ Columbus",,1.0,55.612182,37.607026,Чертаново Центральное
306,Bonapé,"Гурьянова, 2а",,1.0,55.693920999999996,37.723079,Печатники
307,Madwinebar,"Мясницкая, 24/7, стр. 1",8.1,3.0,55.762443999999995,37.635593,Басманный
308,Michel,"Красная Пресня, 13",8.1,3.0,55.761138,37.571067,Пресненский
309,Сайгон,"Сущевский Вал, 5, стр. 22",8.1,2.0,55.793085,37.592599,Марьина Роща
310,Bonapé,"Зеленодольская, 44",,1.0,55.700938,37.764483,Кузьминки
311,Nude. Coffee & Wine Bar,"Спиридоновка, 24/1",8.1,1.0,55.761633999999994,37.592069,Пресненский
312,Рюмочная,"Б.Никитская, 22/2",8.1,1.0,55.7571,37.602948,Пресненский
313,Сок,"Лаврушинский пер., 15, стр. 1",8.1,2.0,55.741606999999995,37.621444,Якиманка
314,Лига пап,"Б.Лубянка, 24",8.1,2.0,55.765189,37.631182,Красносельский
316,Secret Place,"Калошин пер., 4, стр. 1",8.1,2.0,55.747905,37.592545,Арбат
317,Хлебная лавка,"Б.Никитская, 58",8.1,2.0,55.75861999999999,37.586509,Пресненский
318,Винный рынок на Никитском,"Никитский б-р, 8а",8.1,2.0,55.753909,37.601582,Пресненский
319,Ти-бон Wine,"просп. Мира, 58",8.1,3.0,55.785392,37.63606,Мещанский
320,Брянский бык,"Б.Лубянка, 24",8.1,2.0,55.765189,37.631182,Красносельский
321,Нияма,"Красная Сосна, 2а, ТЦ «Компас», 2 этаж",8.1,2.0,55.85094399999999,37.67917,Ярославский
322,19 Bar & Atmosphere,"Покровка, 19",8.1,2.0,55.759588,37.646489,Басманный
325,Christian,"Кутузовский просп., 2/1, стр. 1а, гостиница «Radisson Royal Москва»",8.1,3.0,55.750712,37.564904,Дорогомилово
326,Obed Bufet Арбат,"Н.Арбат, 15",8.1,1.0,55.752141,37.592411,Арбат
327,Zinger Grill,"Арбат, 12, стр. 2",8.1,2.0,55.751047,37.595743,Арбат
328,Upside Down Cake Co. на Грузинской,"Б.Грузинская, 76",8.1,2.0,55.773559999999996,37.586904,Тверской
329,Одесса-мама,"Кривоколенный пер., 10, стр. 5",8.1,2.0,55.761761,37.635673,Басманный
330,I Like Bar,"Шухова, 21",8.1,2.0,55.716351,37.608805,Даниловский
333,Extra Virgin,"Покровка, 17, стр. 1",8.1,2.0,55.759851,37.64577,Басманный
334,У Сальваторе,"Самотечная, 13",8.1,2.0,55.777530000000006,37.61759,Тверской
336,Bonapé,"1-я Останкинская, 55",,1.0,55.82400500000001,37.634434000000006,Останкинский
337,Bonapé,"Декабристов, 12, ТК «Золотой Вавилон Отрадное»",,1.0,55.86310600000001,37.602049,Отрадное
340,Bon app café,"Никольская, 25, ТЦ «Наутилус»",,2.0,55.759091000000005,37.624777,Тверской
341,Bon Café,"Шаболовка, 20",,1.0,55.721543999999994,37.609567999999996,Якиманка
342,Boncho Poncho,"Ореховый б-р, 22а, ТЦ «Облака»",,1.0,55.612044999999995,37.732718,Зябликово
343,Boncho Poncho,"Ореховый б-р, 14, корп. 3, ТРЦ «Домодедовский»",,1.0,55.609675,37.720106,Орехово-Борисово Южное
344,Bonpasti,"Вельяминовская, 6, корп. 2",,2.0,55.781833,37.72299,Соколиная Гора
347,Boobo,"просп. Андропова, 22, ТЦ «Нора», 2 этаж",,3.0,55.682706,37.66132,Нагатино-Садовники
348,Boobo,"Бутлерова, 17, БЦ Neo Geo",,3.0,55.650144999999995,37.539626,Коньково
350,Boom Boom Room by DJ Smash,"ул. 1905 года, 2, стр. 1",,3.0,55.755353,37.560071,Пресненский
351,Boondock,"Б.Сухаревская пл., 14",,2.0,55.771818,37.636491,Красносельский
352,Born to Burn,"Н.Басманная, 32",,2.0,55.76956,37.667501,Басманный
353,Boroda Bar,"Маросейка, 4/2, стр. 1",,1.0,55.757408999999996,37.633688,Басманный
354,Boroda Burger,"Новокуркинское ш., 1, ТЦ «Парус», 4 этаж",,1.0,55.884964000000004,37.407196,Куркино
355,Boston Party Pub,"Рождественка, 6/9/20, стр. 1",,2.0,55.761182999999996,37.623834,Мещанский
356,Boston Pub,"Сергия Радонежского, 29–31",,2.0,55.746927,37.679502,Таганский
357,Boston Seafood & Bar,"Летниковская, 2, стр. 1, БЦ Vivaldi Plaza",,3.0,55.728621,37.644791,Замоскворечье
358,Bottega 21,"М.Бронная, 21/13",,3.0,55.76264200000001,37.594818,Пресненский
359,Bottega fiorentina,"Гарибальди, 25, корп. 1",,4.0,55.670539,37.556217,Черёмушки
360,Prime,"Б.Дмитровка, 7/5, стр. 1",8.0,1.0,55.760434,37.614419,Тверской
361,Фани Кабани,"М.Дмитровка, 5/9",8.0,3.0,55.76795500000001,37.605625,Тверской
362,Delicatessen,"Садовая-Каретная, 20, стр. 2",8.0,2.0,55.772472,37.610871,Тверской
363,Кому жить хорошо,"Пречистенская наб., 17",8.0,4.0,55.739732,37.605508,Хамовники
364,Смайл,"Покровка, 48, стр. 1",8.0,2.0,55.763259999999995,37.654817,Басманный
365,Будвар,"Котельническая наб., 33, стр. 3",8.0,3.0,55.741059,37.647459000000005,Таганский
366,Белый журавль,"Фрунзенская наб., 14",8.0,3.0,55.730816000000004,37.593102,Хамовники
367,Паста и баста,"Сретенский б-р, 4",8.0,2.0,55.766177,37.632107,Красносельский
368,Бавариус,"Комсомольский просп., 21/10",8.0,3.0,55.727942000000006,37.584757,Хамовники
369,Breakfast Café,"М.Никитская, 2/1",8.0,2.0,55.757931000000006,37.597423,Пресненский
370,Булошная,"Лялин пер., 7/2",8.0,3.0,55.759603000000006,37.652471999999996,Басманный
371,Конор Мак Несса,"Нахимовский просп., 67",8.0,2.0,55.68079300000001,37.556828,Черёмушки
372,Fresh,"Б.Дмитровка, 11, стр. 1",8.0,2.0,55.762064,37.613512,Тверской
373,Долма,"Сретенка, 12",8.0,3.0,55.767803,37.632233,Красносельский
374,Паб Ло Пикассо,"Славянская пл., 2",8.0,3.0,55.753038000000004,37.635,Таганский
375,Bobby Dazzler,"Костянский пер., 7/13",8.0,2.0,55.767798,37.635323,Красносельский
376,Луч,"Б.Пироговская, 27, стр. 1",8.0,3.0,55.730005000000006,37.567428,Хамовники
377,Dada,"1-й Новокузнецкий пер., 5/7, стр. 1",8.0,2.0,55.73467900000001,37.632305,Замоскворечье
378,15/17 Bar & Grill,"Б.Черкасский пер., 15/17, стр. 1",8.0,3.0,55.756386,37.627454,Тверской
379,23 Tolstoy,"Льва Толстого, 23, стр. 1",8.0,3.0,55.734927,37.584856,Хамовники
382,Damas,"Маросейка, 8",8.0,3.0,55.757592,37.636437,Басманный
383,Imho,"Сретенский тупик, 5",8.0,2.0,55.771327,37.633841,Красносельский
384,Botteganova Organic Store,"Маршала Рыбалко, 2, корп. 9",,2.0,55.797787,37.497153000000004,Щукино
386,Bottoms Up,"Пятницкая, 29/8",,2.0,55.74094300000001,37.628756,Замоскворечье
387,Boutique Cakes,"просп. Буденного, 26, корп. 1",,1.0,55.764131000000006,37.731146,Соколиная Гора
388,Bowie,"Мясницкая, 16",,2.0,55.760925,37.632511,Басманный
390,Brazilian Steak House,"просп. Мира, 102, корп. 1",,2.0,55.800726,37.636733,Алексеевский
392,Breakfast Club,"М.Козихинский пер., 10",,2.0,55.764348999999996,37.59639,Пресненский
393,Brigante,"Маросейка, 6/8, стр. 1",,2.0,55.757491,37.635404,Басманный
394,Bright Israeli Grill,"Тверская, 27, стр. 2",,1.0,55.768653,37.597549,Тверской
396,Brix Tapas & Grill,"Покровка, 4, стр. 1",,3.0,55.758509,37.641045,Басманный
397,Broadway,"Дмитровское ш., 58",,2.0,55.850646,37.568282,Бескудниковский
398,Brocard,"Б.Новодмитровская, 36, стр. 1, дизайн-завод «Флакон»",,2.0,55.804329,37.585196999999994,Бутырский
399,Bronco,"М.Бронная, 4",,3.0,55.759552,37.597477000000005,Пресненский
400,Brooklyn BBQ,"Ладожская, 5",,2.0,55.771606000000006,37.682152,Басманный
401,Brooklyn Burgers,"Красная Пресня, 29",,1.0,55.762267,37.564006,Пресненский
403,Brotundbeer,"Кировоградская, 13а, ТЦ Columbus",,2.0,55.612182,37.607026,Чертаново Центральное
404,Bro We,"Бауманская, 9",,1.0,55.776654,37.677104,Басманный
405,Brownbar,"Волгоградский просп., 37а",,2.0,55.72245600000001,37.697145,Нижегородский
406,Bruce Lee,"2-я Звенигородская, 12, стр. 14",,2.0,55.761067000000004,37.555301,Пресненский
408,Lao Lee Café,"Цветной б-р, 15, стр. 1, универмаг «Цветной», 6 этаж",8.0,1.0,55.771145,37.620177000000005,Тверской
409,Phở Point,"Сретенка, 1, стр. 1",8.0,1.0,55.766532,37.630544,Мещанский
410,Sean O'Neill,"Кузнецкий Мост, 11, cтр. 1",8.0,3.0,55.762227,37.622199,Мещанский
411,Бутчер,"Профсоюзная, 66",8.0,4.0,55.664223,37.547261,Обручевский
412,Оджахури,"Садовая-Черногрязская, 22, стр.1",8.0,2.0,55.764393999999996,37.655095,Басманный
414,Сыроварня на Бадаевском заводе,"Кутузовский просп., 12, стр. 1, БЦ «Бадаевский»",8.0,3.0,55.750788,37.5592,Дорогомилово
416,Mandy's Apothecary Irish Pub,"Кузнецкий Мост, 19, стр. 1",8.0,2.0,55.762449,37.625855,Мещанский
417,Grand cru by Adrian Quetglas,"М.Бронная, 22, стр. 2",8.0,4.0,55.762976,37.59498,Пресненский
418,Lavkalavka,"Петровка, 21",8.0,3.0,55.765615000000004,37.615578,Тверской
419,Cantinetta Antinori,"Денежный пер., 20",8.0,4.0,55.745412,37.58676,Хамовники
420,Burger & Pizzetta,"пл. Киевского Вокзала, 2, ТРЦ «Европейский», 2 этаж",8.0,2.0,55.744631999999996,37.566072,Дорогомилово
421,Meat Me,"Шаболовка, 29, корп. 2",8.0,1.0,55.721686,37.6107,Якиманка
422,Shishas Sferum Bar,"Н.Арбат, 36, стр. 3, ТЦ «Сфера»",8.0,2.0,55.753133999999996,37.575882,Арбат
423,Tap & Barrel Pub,"Б.Дмитровка, 13",8.0,2.0,55.762166,37.613063000000004,Тверской
424,Кабинет,"Б.Дмитровка, 2",8.0,2.0,55.758767000000006,37.617734000000006,Тверской
425,Барашка,"Петровка, 20/1",8.0,3.0,55.764176,37.617384,Тверской
426,Воккер,"просп. Вернадского, 6, ТЦ «Капитолий Вернадского»",8.0,1.0,55.69195799999999,37.527956,Раменки
427,Рамен-клаб,"Кривоколенный пер. 3, стр. 1",8.0,1.0,55.760727,37.632934000000006,Басманный
428,Фарш,"Никольская, 12, гостиница The St. Regis Moscow Nikolskaya, 1 этаж",8.0,2.0,55.757126,37.622432,Тверской
429,Джон Донн,"Никитский б-р, 12",8.0,2.0,55.755388,37.60054,Пресненский
431,Correa's,"Ленинградское ш., 16а, стр. 3, БЦ «Метрополис»",8.0,2.0,55.822286,37.499516,Войковский
432,Bubbleology,"Пресненская наб., 2, ТЦ «Афимолл-сити», 5 этаж",,1.0,55.74906,37.539347,Пресненский
434,Bubbleology,"просп. Вернадского, 86а, ТРЦ Avenue South West",,1.0,55.66301899999999,37.480993,Тропарёво-Никулино
435,Bubble Waffle,"Пресненская наб., 2, ТЦ «Афимолл-сити»",,1.0,55.74906,37.539347,Пресненский
436,Budapest,"Н.Арбат, 11, стр. 1, ТД «Новоарбатский»",,1.0,55.752217,37.595132,Арбат
437,Buddy Bar,"Борисовские Пруды, 26, стр. 2, ТРЦ «Браво»",,2.0,55.639029,37.759228,Братеево
439,Buffalo,"Артековская, 1а",,2.0,55.652654000000005,37.613593,Нагорный
440,Buffalo's,"пл. Джавахарлала Неру, 1, ТЦ «Университи», 3 этаж",,2.0,55.69329200000001,37.533975,Раменки
443,Buffalo's,"Н.Арбат, 11, стр. 1, ТД «Новоарбатский»",,2.0,55.752217,37.595132,Арбат
445,Buffalo's,"Ниж.Красносельская, 35, стр. 59",,2.0,55.776598,37.674741,Басманный
446,Bulka Coffee,"Кронштадтский б-р, 7а, стр. 1",,1.0,55.842327000000004,37.487109999999994,Головинский
447,Bulls Bar,"Сумской пр., 2б",,2.0,55.633775,37.613476,Чертаново Северное
448,Bulvarka,"Подколокольный пер., 16/2, стр. 2",,1.0,55.751984,37.645699,Таганский
451,Burger Club,"Нагатинская, 16, ТЦ «Конфетти»",,1.0,55.681529000000005,37.652625,Нагатино-Садовники
452,Burger Club,"Б.Черкизовская, 6",,1.0,55.796203000000006,37.719594,Преображенское
453,Burger Club,"ш. Энтузиастов, 31",,1.0,55.758568999999994,37.75011,Соколиная Гора
454,Burger Club,"Бутырская, 2, стр. 2",,1.0,55.794229,37.586696999999994,Бутырский
457,West 4. Coffee Brew Bar,"Остоженка, 3/14",8.0,1.0,55.74385699999999,37.60196,Хамовники
458,Mizandari,"Болотная наб., 5, стр. 1",8.0,2.0,55.740232999999996,37.610413,Якиманка
459,Тануки,"просп. Мира, 120",8.0,2.0,55.81177099999999,37.639339,Алексеевский
460,Nhà,"Столешников пер., 6, стр. 3",8.0,1.0,55.76145699999999,37.6122,Тверской
461,Parka,"Пятницкая, 22",8.0,1.0,55.74149499999999,37.628208,Замоскворечье
462,Mendeleev,"Петровка, 20/1, –1 этаж",8.0,3.0,55.764176,37.617384,Тверской
464,BB Grill,"Семеновская пл., 1, ТРЦ «Семеновский»",7.9,3.0,55.782743999999994,37.720816,Соколиная Гора
465,Grill & Gyros,"1-й Хорошевский пр., 12, корп. 1",7.9,1.0,55.775378,37.546003999999996,Хорошёвский
466,Moscow — Delhi,"Ермолаевский пер., 7",7.9,3.0,55.764237,37.59047,Пресненский
467,Haggis Pub & Kitchen,"Петровка, 15",7.9,3.0,55.763554000000006,37.616628999999996,Тверской
468,Parisienne,"Ленинградский просп., 31, стр. 9",7.9,4.0,55.785387,37.562137,Беговой
469,Why Not Wine,"М.Никитская, 8/1",7.9,3.0,55.758184,37.595321000000006,Пресненский
470,Wine & Crab,"Никольская, 19–21, корп. 1",7.9,3.0,55.75846800000001,37.623483,Тверской
471,Burger Heroes,"Кузнецкий Мост, 12, 1 этаж",7.9,1.0,55.761609,37.621121,Мещанский
472,Emporio café,"1-й Тверской-Ямской пер., 18/3",7.9,3.0,55.773702,37.59922,Тверской
473,Wino Bar,"Марксистская, 20/1",7.9,2.0,55.738231000000006,37.659775,Таганский
474,Воронеж,"Пречистенка, 4, 2 этаж",7.9,3.0,55.74457099999999,37.600953999999994,Хамовники
475,Консерватория,"Неглинная, 4, гостиница «Арарат Парк Хаятт Москва», 10 этаж",7.9,4.0,55.759912,37.621471,Мещанский
476,Ян Примус,"Миклухо-Маклая, 27а",7.9,3.0,55.647468,37.516898,Коньково
477,Урюк,"Ленинградский просп., 37, корп. 6",7.9,2.0,55.794619,37.54285,Хорошёвский
478,Воккер,"Кожевническая, 3",7.9,1.0,55.730456000000004,37.642977,Замоскворечье
479,Uilliam's,"М.Бронная, 20а",7.9,3.0,55.76251,37.595537,Пресненский
480,Burger Club,"Зеленодольская, 44",,1.0,55.700938,37.764483,Кузьминки
481,Burger Club,"Ставропольская, 38/2",,1.0,55.681326,37.760458,Люблино
483,Burger Club,"Краснопрудная, 1",,1.0,55.776877,37.659371,Красносельский
484,Burger Club,"Каретный Ряд, 3, стр. 15а",,1.0,55.770775,37.610646,Тверской
486,Burger Club,"Плещеева, 4, корп. 1, стр. 6",,1.0,55.882808,37.604915000000005,Бибирево
487,Burger Club,"Поречная, 10, ТРК Mari",,1.0,55.649825,37.770043,Марьино
489,Burger Club,"Ленинский просп., 2а",,1.0,55.728778000000005,37.610988,Якиманка
491,Burger Club,"84-й км МКАД, пересечение с Алтуфьевским ш., ТРЦ «Весна»",,1.0,55.910895999999994,37.575208,Лианозово
492,Burger First,"Ниж.Сыромятническая, 10, стр. 11",,1.0,55.753190000000004,37.666709999999995,Басманный
495,Burger Heroes,"Маросейка, 4/2, стр. 1",,1.0,55.757408999999996,37.633688,Басманный
497,Burger Heroes,"Грузинский Вал, 28/45",,1.0,55.77490699999999,37.582906,Пресненский
499,Burger Heroes,"Камергерский пер., 6/5, 2 этаж",,1.0,55.759997999999996,37.61415,Тверской
500,Burger Heroes,"Садовая-Самотечная, 20, стр. 1",,1.0,55.773231,37.619459,Тверской
502,Burger Heroes,"Н.Арбат, 17",,1.0,55.752141,37.590713,Арбат
504,Илларион,"Косыгина, 5",7.9,2.0,55.707101,37.572854,Гагаринский
505,Брюссель,"М.Дмитровка, 18а, стр. 3",7.9,2.0,55.771201,37.605858000000005,Тверской
506,Честная кухня,"Садовая-Черногрязская, 10/25",7.9,3.0,55.764393999999996,37.655095,Басманный
507,Bocconcino,"Страстной б-р, 7, стр. 1",7.9,3.0,55.767219999999995,37.608275,Тверской
508,Chicago Grill & Bar,"Страстной б-р, 8а",7.9,4.0,55.76625799999999,37.610826,Тверской
509,Buba by Sumosan,"Цветной б-р, 7, стр. 1",7.9,2.0,55.769321999999995,37.620707,Тверской
511,Бакинский бульвар,"Балаклавский просп., 11а",7.9,3.0,55.641695999999996,37.593686,Чертаново Северное
512,Баба Марта,"Гоголевский б-р, 8",7.9,3.0,55.74624300000001,37.600711,Хамовники
513,Møs,"Трубецкая, 10",7.9,3.0,55.727217,37.576043,Хамовники
514,Probka на Цветном,"Цветной б-р, 2, ЖК «Легенда Цветного»",7.9,4.0,55.768025,37.623483,Мещанский
515,Хачапури,"Б.Гнездниковский пер., 10",7.9,2.0,55.763224,37.605409,Тверской
516,Filial,"Кривоколенный пер., 3, стр. 1",7.9,2.0,55.760727,37.632934000000006,Басманный
517,Vietcafé,"Б.Якиманка, 31",7.9,2.0,55.73533199999999,37.614096,Якиманка
518,Table,"Лесная, 45",7.9,1.0,55.780942,37.591592999999996,Тверской
519,Панаехали,"2-й Смоленский пер., 1/4",7.9,2.0,55.747023999999996,37.581523,Арбат
520,Katusha,"Б.Дмитровка, 23, стр. 1",7.9,2.0,55.765696,37.609604,Тверской
521,Все твои друзья,"М.Гнездниковский пер., 12/27, магазин «Просто так»",7.9,1.0,55.762703,37.606873,Тверской
522,Osteria della Piazza Bianca,"Лесная, 5а, БЦ «Белая площадь»",7.9,3.0,55.778704000000005,37.585826000000004,Тверской
524,Под мухой,"Страстной б-р, 6, стр. 2",7.9,1.0,55.76560500000001,37.609299,Тверской
525,Brisket BBQ,"Смоленский б-р, 15",7.9,2.0,55.74179399999999,37.582538,Хамовники
527,Brasserie Мост,"Кузнецкий Мост, 6/3, стр. 3",7.8,4.0,55.761224,37.617571999999996,Тверской
528,Burger King,"просп. Мира, 211, ТРЦ «Золотой Вавилон», 2 этаж",,1.0,55.84585500000001,37.662093,Свиблово
529,Burger King,"41-й км МКАД, пересечение с Калужским ш., ТЦ «Мега Теплый Стан»",,1.0,55.609823,37.49329,Ясенево
530,Burger King,"пл. Киевского Вокзала, 2, ТРЦ «Европейский», 4 этаж",,1.0,55.744631999999996,37.566072,Дорогомилово
531,Burger King,"Земляной Вал, 33, ТРК «Атриум»",,1.0,55.757339,37.659164000000004,Басманный
532,Burger King,"просп. Вернадского, 6, ТЦ «Капитолий Вернадского», 3 этаж",,1.0,55.69195799999999,37.527956,Раменки
534,Burger King,"Барклая, 10а, ТК «Фили», 1 этаж",,1.0,55.742635,37.499561,Филёвский Парк
535,Burger King,"Профсоюзная, 61, ТЦ «Калужский»",,1.0,55.656696999999994,37.5425,Черёмушки
536,Burger King,"Манежная пл., 1, стр. 2, ТЦ «Охотный Ряд», –3 этаж",,1.0,55.755773,37.614608000000004,Тверской
537,Burger King,"Цветной б-р, 13, в здании Цирка Никулина на Цветном бульваре",,1.0,55.770578,37.620016,Тверской
538,Burger King,"Ленинский просп., 2",,1.0,55.729524,37.611391999999995,Якиманка
539,Burger King,"просп. Мира, 114б, стр. 2",,1.0,55.808225,37.638000000000005,Алексеевский
540,Burger King,"Таганская, 1, ТЦ «Звездочка», 3 этаж",,1.0,55.741783999999996,37.655894,Таганский
541,Burger King,"Б.Тульская, 13, ТРЦ «Ереван-плаза»",,1.0,55.708729000000005,37.622091,Даниловский
542,Burger King,"Садовая-Кудринская, 3а",,1.0,55.760099,37.584559000000006,Пресненский
543,Burger King,"Сущевский Вал, 31, супермаркет «Оливье»",,1.0,55.793328,37.604161,Марьина Роща
546,Burger King,"Ленинская Слобода, 17",,1.0,55.709743,37.656389000000004,Даниловский
547,Burger King,"Шереметьевская, 20а, ТЦ «Капитолий Марьина Роща»",,1.0,55.80346899999999,37.618848,Марьина Роща
548,Burger King,"Вавилова, 3, ТРЦ «Гагаринский», 3 этаж",,1.0,55.706883,37.592096000000005,Донской
549,Burger King,"Б.Черемушкинская, 1, ТРЦ «Рио»",,1.0,55.690278,37.601879,Котловка
550,Burger King,"Пресненская наб., 2, ТЦ «Афимолл-сити»",,1.0,55.74906,37.539347,Пресненский
551,Burger King,"Б.Семеновская, 16, ТРЦ «Серебряный дом»",,1.0,55.781918999999995,37.704017,Соколиная Гора
552,Квартира 44,"М.Якиманка, 24, корп. 8",7.8,2.0,55.737218000000006,37.617294,Якиманка
553,Pinsa Maestrello,"Покровка, 16",7.8,2.0,55.759156999999995,37.645708,Басманный
555,Сэлэнгэ,"М.Дмитровка, 23/15",7.8,2.0,55.77040600000001,37.604789000000004,Тверской
556,Mary Jane,"Новоданиловская наб., 4",7.8,2.0,55.69834,37.625531,Донской
557,I Like Grill,"Льва Толстого, 18б",7.8,4.0,55.735028,37.585503,Хамовники
558,La provincia,"Калужская пл., 1, стр. 2",7.8,4.0,55.727876,37.613834999999995,Якиманка
560,Вай мэ!,"Гжельский пер., 19, стр. 2",7.8,1.0,55.747647,37.680616,Таганский
561,Дом-кафе,"Пятницкая, 9/28",7.8,2.0,55.74040600000001,37.627445,Замоскворечье
562,Lambic,"Воронцово Поле, 11/32",7.8,3.0,55.754380000000005,37.653963,Басманный
563,Meatless,"Пятницкая, 26",7.8,2.0,55.740993,37.628208,Замоскворечье
564,Руккола,"Арбат, 19",7.8,2.0,55.750712,37.596148,Арбат
565,Beermarket,"Страстной б-р, 4, стр. 2",7.8,1.0,55.765372,37.608553,Тверской
566,"Shell, Yes!","Рождественский б-р, 10/7",7.8,3.0,55.767109,37.624076,Мещанский
567,Главпивмаг,"Макаренко, 2/21, стр. 1",7.8,1.0,55.760925,37.646705,Басманный
568,Бенвенуто,"Сретенский б-р, 6/1, стр.1, 1 этаж",7.8,2.0,55.765853,37.633517,Красносельский
570,Torro Grill,"Летниковская, 2, стр. 1",7.8,3.0,55.728621,37.644791,Замоскворечье
573,Южане,"просп. Академика Сахарова, 10",7.8,3.0,55.768699,37.641962,Красносельский
574,Рыбный базар,"Трехпрудный пер., 10/2, 2 этаж",7.8,4.0,55.765406999999996,37.597522,Тверской
575,Джельсомино,"Петровка, 21, стр. 1",7.8,4.0,55.765615000000004,37.615578,Тверской
576,Burger King,"Багратионовский пр., 5, ТРЦ «Филион»",,1.0,55.743649,37.508122,Филёвский Парк
577,Burger King,"пр. Дежнева, 23а, ТЦ «Эго-молл»",,1.0,55.870481000000005,37.638009000000004,Южное Медведково
578,Burger King,"Ярославское ш., 69",,1.0,55.867253000000005,37.704206,Ярославский
579,Burger King,"Люблинская, 153, ТК «Л-153»",,1.0,55.658834999999996,37.741908,Марьино
580,Burger King,"Маршала Бирюзова, 32, ТРЦ «Пятая авеню»",,1.0,55.799588,37.483022999999996,Щукино
581,Burger King,"Перерва, 43, корп. 1, ТК «Бум»",,1.0,55.659647,37.749660999999996,Марьино
583,Burger King,"Покрышкина, 4, ТЦ «Звездочка»",,1.0,55.665061,37.481487,Тропарёво-Никулино
584,Burger King,"Новоясеневский просп., 11, ТК «Золотой Вавилон Ясенево»",,1.0,55.606669999999994,37.536284,Ясенево
585,Burger King,"Новоясеневский просп., 1, ТРЦ «Спектр»",,1.0,55.61946700000001,37.50928,Ясенево
586,Burger King,"Профсоюзная, 129а, ТРЦ «Принц-плаза», 4 этаж",,1.0,55.61813000000001,37.507484000000005,Ясенево
587,Burger King,"Фестивальная, 2б, ТЦ «Речной», 3 этаж",,1.0,55.855078000000006,37.478082,Левобережный
588,Burger King,"Дмитровское ш., 163а, ТРЦ «Рио Дмитровка»",,1.0,55.909065000000005,37.539248,Северный
590,Burger King,"Сходненская, 56, ТРЦ «Калейдоскоп», 4 этаж",,1.0,55.850407999999995,37.44409,Южное Тушино
591,Burger King,"Планерная, 7, ТПУ «Планерная»",,1.0,55.924319999999994,37.381306,Молжаниновский
592,Burger King,"Правобережная, 1б, ТЦ «Капитолий Ленинградский»",,1.0,55.881046,37.450162,Левобережный
593,Burger King,"Рублевское ш., 62, ТРЦ «Европарк»",,1.0,55.766212,37.380875,Крылатское
594,Burger King,"Дубравная, 34/29, ТРЦ «Ладья»",,1.0,55.846113,37.358211,Митино
595,Burger King,"Б.Тульская, 2",,1.0,55.709028,37.620761,Даниловский
596,Burger King,"Люблинская, 92, стр. 2, АЗС «Роснефть»",,1.0,55.658312,37.738782,Марьино
601,Mr. Help & Friends,"1-я Тверская-Ямская, 27, 2 этаж",7.8,2.0,55.775753,37.585691,Тверской
602,Torro Grill,"Лесная, 5б, БЦ «Белая площадь»",7.8,3.0,55.778273999999996,37.586859000000004,Тверской
603,Бакинский бульвар,"просп. Андропова, влад. 21а",7.8,3.0,55.678854,37.664914,Нагатинский Затон
604,Линдфорс,"М.Пироговская, 16",7.8,1.0,55.728469,37.566485,Хамовники
605,Хачапури,"Кривоколенный пер., 10, стр. 5",7.8,2.0,55.761761,37.635673,Басманный
606,Cevicheria,"Пречистенская наб., 15, стр. 1",7.8,3.0,55.738338,37.604726,Хамовники
608,Correa's,"Б.Грузинская, 32",7.7,2.0,55.767205000000004,37.579259,Пресненский
609,Katie O'Shea's,"просп. Мира, 26, стр. 5",7.7,2.0,55.777302,37.634415999999995,Мещанский
610,Варка,"Александра Солженицына, 1/5",7.7,1.0,55.742118999999995,37.655311,Таганский
611,Фаренгейт,"Тверской б-р, 26, стр. 2",7.7,3.0,55.763335999999995,37.604628000000005,Тверской
613,The Mad Cook,"Цветной б-р, 2, БЦ «Легенда Цветного», вход из М.Сергиевского переулка",7.7,3.0,55.768025,37.623483,Мещанский
614,"Дорогая, я перезвоню..,","2-я Тверская-Ямская, 10",7.7,2.0,55.771327,37.595465000000004,Тверской
616,Ноев ковчег,"М.Ивановский пер., 9",7.7,3.0,55.753985,37.64127,Басманный
617,Хаджурао,"Шмитовский пр., 14",7.7,2.0,55.758418000000006,37.550962,Пресненский
618,Porto maltese,"Б.Спасская, 8, стр. 1а",7.7,4.0,55.775677,37.643209999999996,Красносельский
619,Kinki,"Осенняя, 11",7.7,4.0,55.76231800000001,37.40433,Крылатское
620,Pancho Villa,"Б.Якиманка, 52",7.7,3.0,55.731774,37.611455,Якиманка
621,Pizza Express,"Тверская, 17",7.7,2.0,55.763478000000006,37.606595,Тверской
622,Оттепель,"просп. Мира, 119, ВДНХ, павильон 311",7.7,3.0,55.826291000000005,37.637614,Останкинский
624,Burger King,"24-й км МКАД, пересечение с Каширским ш., ТРЦ Vegas",,1.0,55.59399499999999,37.734946,Орехово-Борисово Южное
629,Burger King,"Балаклавский просп., 5а, ТЦ «Штаер Чертаново»",,1.0,55.64054300000001,37.608212,Чертаново Северное
630,Burger King,"Сокольническая пл., 9а, ТЦ «Престиж М»",,1.0,55.790337,37.679826,Сокольники
631,Burger King,"В.Красносельская, 3а, ТДК «Тройка»",,1.0,55.785513,37.665408,Красносельский
632,Burger King,"Зеленый просп., 62, ТЦ «Шангал»",,1.0,55.750873999999996,37.819927,Новогиреево
633,Burger King,"Лесная, 5, БЦ «Белая площадь»",,1.0,55.77778299999999,37.586877,Тверской
634,Burger King,"Щелковское ш., 100, ТЦ «Щелково»",,1.0,55.81255,37.832827,Северное Измайлово
635,Burger King,"Варшавское ш., 160, ТРЦ «Галерея Атлантис»",,1.0,55.582986,37.595240000000004,Чертаново Южное
636,Burger King,"Варшавское ш., 95, корп. 1, ТЦ «Аэробус»",,1.0,55.640274,37.621938,Чертаново Северное
638,Burger King,"60-й км МКАД, пересечение с Рублевским ш., 4а, БЦ «Колизей»",,1.0,55.766805000000005,37.372063,Кунцево
639,Burger King,"Локомотивный пр., 4, ТЦ «Парус»",,1.0,55.838,37.576852,Тимирязевский
640,Burger King,"Каширское ш., 26, ТРК «Москворечье»",,1.0,55.653314,37.64613,Москворечье-Сабурово
642,Burger King,"Краснодарская, 51, корп. 2, ТЦ «Люблинский пассаж»",,1.0,55.677336,37.765399,Люблино
644,Burger King,"Грузинский Вал, 28/45",,1.0,55.77490699999999,37.582906,Пресненский
645,Burger King,"Н.Арбат, 17",,1.0,55.752141,37.590713,Арбат
646,Burger King,"Енисейская, 19, корп. 1, ТК «Радужный»",,1.0,55.86920799999999,37.663018,Бабушкинский
647,Burger King,"Бауманская, 32, стр. 2, ТЦ «Елоховский пассаж»",,1.0,55.772163,37.678325,Басманный
648,Хинкальная на Неглинной,"Неглинная, 15",7.7,2.0,55.763001,37.619728,Тверской
649,Twins Garden,"Страстной б-р, 8а",7.7,3.0,55.76625799999999,37.610826,Тверской
650,Modus,"1-й Тружеников пер., влад. 4",7.7,4.0,55.739235,37.574956,Хамовники
651,Венеция,"Страстной б-р, 4, стр. 3",7.7,2.0,55.764865,37.608383,Тверской
652,Da Pino,"Волгоградский просп., 73, стр. 1",7.7,2.0,55.709945999999995,37.74419,Текстильщики
654,Cook'kareku,"Садовая-Кудринская, 9, стр. 4",7.7,2.0,55.762443999999995,37.5865,Пресненский
655,Bistrot,"Б.Саввинский пер., 12, стр. 2",7.7,4.0,55.732991000000005,37.56512,Хамовники
656,Coffee Bean,"Пятницкая, 5, стр. 1",7.7,1.0,55.745158999999994,37.627337,Замоскворечье
657,Академия,"Б.Бронная, 2/6",7.7,3.0,55.760093999999995,37.597513,Пресненский
658,Kabuki,"Земляной Вал, 33, ТРК «Атриум», 4 этаж",7.7,2.0,55.757339,37.659164000000004,Басманный
659,Babetta Café,"Мясницкая, 15",7.7,2.0,55.763107999999995,37.634865000000005,Красносельский
661,Pie Point,"Б.Бронная, 27/4",7.7,2.0,55.760093999999995,37.597513,Пресненский
662,Tutti i giorni,"Воротынская, 15",7.7,3.0,55.888806,37.390577,Куркино
663,Колбасофф,"Мичуринский просп., Олимпийская деревня, 3, корп. 1, ТРЦ «Фестиваль»",7.7,2.0,55.677951,37.466637,Тропарёво-Никулино
664,Чебуречная,"Солянский пр., 1/4",7.7,1.0,55.75375699999999,37.636105,Таганский
665,Pizza Peppe,"Газетный пер., 9, стр. 2",7.7,2.0,55.758053000000004,37.609002000000004,Пресненский
666,Кофемания,"Трубная пл., 2, ТЦ «Неглинная плаза»",7.7,3.0,55.766491,37.622333000000005,Мещанский
667,Брудер,"Бутырская, 46, стр. 1",7.7,2.0,55.79946700000001,37.584811,Бутырский
668,Брусника,"Маросейка, 6/8, стр. 1",7.7,1.0,55.757491,37.635404,Басманный
669,Starbucks,"Арбат, 19",7.7,1.0,55.750712,37.596148,Арбат
670,Goodman,"Новинский б-р, 31, ТДЦ «Новинский», 2 этаж",7.6,3.0,55.757830000000006,37.582511,Пресненский
671,Sisters Café,"Покровка, 6",7.6,2.0,55.758691000000006,37.642007,Басманный
672,Burger King,"Измайловское ш., 69г, ТЦ «Альбатрос»",,1.0,55.788525,37.750406,Измайлово
673,Burger King,"Ореховый б-р, 14, корп. 3, ТРЦ «Домодедовский»",,1.0,55.609675,37.720106,Орехово-Борисово Южное
674,Burger King,"Осенний б-р, 10, ТЦ «Бульвар»",,1.0,55.757774,37.408993,Крылатское
676,Burger King,"Мясницкая, 11",,1.0,55.761694999999996,37.632664,Красносельский
677,Burger King,"Ореховый б-р, 24, ТЦ «Зябликово»",,1.0,55.613677,37.743552,Зябликово
678,Burger King,"Воздвиженка, 9, стр. 2",,1.0,55.752642,37.603846000000004,Арбат
679,Burger King,"Волоколамское ш., 67, стадион «Открытие-арена»",,1.0,55.821077,37.430462,Покровское-Стрешнево
680,Burger King,"Мичуринский просп., Олимпийская деревня, 3, корп. 1, ТРЦ «Фестиваль»",,1.0,55.677951,37.466637,Тропарёво-Никулино
681,Burger King,"Боровское ш., 51, ТЦ «Новопеределкино»",,1.0,55.636554000000004,37.352273,Ново-Переделкино
682,Burger King,"Профсоюзная, 56, ТЦ «Черемушки»",,1.0,55.670021,37.552479999999996,Обручевский
683,Burger King,"Рязанский просп., 75",,1.0,55.718065,37.791917,Рязанский
684,Burger King,"Ходынский б-р, 4, ТРЦ «Авиапарк»",,1.0,55.790464,37.530409000000006,Хорошёвский
685,Burger King,"Рязанский просп., 2, корп. 2, ТК «Город на Рязанке»",,1.0,55.729833,37.731021000000005,Нижегородский
686,Burger King,"Ореховый б-р, 22а, ТРК «Облака»",,1.0,55.612044999999995,37.732718,Зябликово
687,Burger King,"9-я Парковая, 68, корп. 1",,1.0,55.808599,37.799203000000006,Северное Измайлово
688,Burger King,"Кировоградская, 13а, ТЦ Columbus",,1.0,55.612182,37.607026,Чертаново Центральное
689,Burger King,"7-я Кожуховская, 9, ТРК «Мозаика»",,1.0,55.710687,37.6751,Южнопортовый
690,Burger King,"Профсоюзная, 102, стр. 1, ТЦ «Ареал»",,1.0,55.643657999999995,37.526232,Коньково
691,Burger King,"Ярцевская, 19, МФК «Кунцево-плаза»",,1.0,55.73859100000001,37.411004999999996,Кунцево
692,Burger King,"Авиамоторная, 12",,1.0,55.75322,37.715471,Лефортово
693,Burger King,"просп. Вернадского, 14а, ТЦ «Обувь-сити»",,1.0,55.677737,37.506882,Проспект Вернадского
695,Burger King,"Театральный пр., 5, Центральный детский магазин",,1.0,55.760194999999996,37.624651,Мещанский
696,Мандарин. Лапша и утки,"Б.Черкасский пер., 5",7.6,3.0,55.75786,37.625963,Тверской
697,Mollie’s,"Мясницкая, 13, стр. 3",7.6,2.0,55.762622,37.63394,Красносельский
698,Винный базар на Никитском,"Никитский б-р, 12",7.6,2.0,55.755388,37.60054,Пресненский
699,Винный буфет,"просп. 60-летия Октября, 25/1",7.6,2.0,55.690735,37.576133,Академический
700,Lucky Souvlaki,"Каретный Ряд, 3, в саду «Эрмитаж»",7.6,2.0,55.770796,37.609272,Тверской
701,Кувшин,"Академика Анохина, 58",7.6,3.0,55.650236,37.469171,Тропарёво-Никулино
702,Goodman,"Щукинская, 42, ТРК «Щука»",7.6,3.0,55.80946899999999,37.464571,Щукино
703,Образ жизни,"Пречистенка, 40/2, стр. 2",7.6,2.0,55.739422,37.587604999999996,Хамовники
704,Groot,"2-я Звенигородская, 12, стр. 15",7.6,2.0,55.761258999999995,37.555292,Пресненский
705,Бутчер,"М.Дмитровка, 20",7.6,4.0,55.771839,37.605256,Тверской
706,Гончаров,"Петровско-Разумовский пр., 16",7.6,2.0,55.797574,37.569468,Савёловский
707,Шоколадное ателье,"Покровка, 40",7.6,1.0,55.761968,37.6524,Басманный
708,Сытый лось,"Коломенский пр., 10",7.6,2.0,55.66559399999999,37.650738,Нагатино-Садовники
709,Osteria Toscana,"Удальцова, 15",7.6,3.0,55.672636,37.514724,Проспект Вернадского
710,The Burger Brothers,"1-й Тверской-Ямской пер., 11",7.6,1.0,55.773155,37.597208,Тверской
711,"Дорогая, я перезвоню..,","Б.Строченовский пер., 7",7.6,2.0,55.729077000000004,37.630858,Замоскворечье
712,Saxon + Parole,"Спиридоньевский пер., 12/9",7.6,3.0,55.76289499999999,37.596183,Пресненский
713,Лусюнь,"Кржижановского, 18, корп. 1",7.6,2.0,55.67958,37.57015,Академический
714,Бакинский дворик,"просп. Академика Сахарова, 10а",7.6,2.0,55.768699,37.641962,Красносельский
716,Жуковка,"просп. Маршала Жукова, 41, корп. 1",7.6,3.0,55.775459,37.469844,Хорошёво-Мнёвники
717,Рыбы нет,"Никольская, 12, гостиница The St. Regis Moscow Nikolskaya, 1 этаж",7.6,3.0,55.757126,37.622432,Тверской
718,Голубка,"Б.Пироговская, 53/55",7.6,3.0,55.727029,37.561446000000004,Хамовники
719,Мари Ванна,"Спиридоньевский пер., 10а",7.6,3.0,55.762617000000006,37.595833,Пресненский
720,Burger King,"Шереметьевская, 6, корп. 1, ТРЦ «Райкин-плаза»",,1.0,55.795432999999996,37.617141,Марьина Роща
721,Burger King,"Кустанайская, 6, ТЦ «Столица»",,1.0,55.619574,37.752148999999996,Зябликово
722,Burger King,"84-й км МКАД, пересечение с Алтуфьевским ш., ТРЦ «Весна»",,1.0,55.910895999999994,37.575208,Лианозово
730,Burger King,"66-й км МКАД, пересечение с Волоколамским ш., ТРЦ «Vegas Крокус-сити»",,1.0,55.814836,37.39046,Строгино
737,Burger King,"Б.Полянка, 28",,1.0,55.736012,37.618659,Якиманка
738,Burger King,"М.Филевская, 13, ТЦ «Ода»",,1.0,55.736387,37.467383,Фили-Давыдково
739,Burger King,"Измайловский Вал, 2",,1.0,55.7836,37.719244,Соколиная Гора
740,Burger King,"Профсоюзная, 126, корп. 2, ТК «Коньково-пассаж»",,1.0,55.631168,37.517374,Тёплый Стан
741,Burger King,"Бартеневская, 12, гипермаркет «Карусель»",,1.0,55.551716000000006,37.528154,Южное Бутово
742,Burger King,"Бесединское ш., 15, ТЦ «Парк-хаус Братеево»",,1.0,55.62528199999999,37.76133,Братеево
743,Burger King,"Сигнальный пр., 17, ТЦ «Парк-хаус Сигнальный»",,1.0,55.850995,37.597414,Отрадное
744,Ю-мэ,"Покровка, 38а",7.6,3.0,55.761517000000005,37.651708,Басманный
745,Scandinavia,"М.Палашевский пер., 7",7.6,3.0,55.765514,37.602256,Тверской
746,Daddy Pub,"Солдатская, 6а",7.6,2.0,55.764768999999994,37.701304,Лефортово
747,Ача-чача,"Ленинградский просп., 9б, стр. 1",7.6,2.0,55.780471,37.574624,Беговой
748,Ветка,"Александра Солженицына, 44/10",7.6,2.0,55.745580000000004,37.66786,Таганский
749,Чайная высота,"Крымский Вал, 9, в парке Горького",7.6,1.0,55.725908999999994,37.599084999999995,Якиманка
750,Мумий Тролль Music Bar,"Тверская, 7",7.5,2.0,55.757971999999995,37.611203,Тверской
751,Via Романо,"Лавочкина, 34",7.5,3.0,55.856294999999996,37.493919,Ховрино
752,Winil Wine Bar,"Зубовская, 5/36",7.5,3.0,55.737536999999996,37.584496,Хамовники
754,Saperavi Café,"1-я Тверская-Ямская, 27",7.5,2.0,55.775753,37.585691,Тверской
755,Барашка,"Н.Арбат, 21, стр. 1",7.5,3.0,55.75190799999999,37.584901,Арбат
756,Georgian Kitchen,"Серпуховский Вал, 30",7.5,2.0,55.712208,37.608383,Даниловский
757,Йоркшир,"Варшавское ш., 94",7.5,3.0,55.647204,37.618641,Нагорный
759,Маленькая пекарня Журавлевых,"Автозаводская, 8",7.5,1.0,55.708486,37.659622,Даниловский
760,Петров и Васечка,"Цветной б-р, 7, стр. 1, вход во дворе",7.5,2.0,55.769321999999995,37.620707,Тверской
761,8 Oz,"Крымский Вал, 9, стр. 21, в парке Горького",7.5,3.0,55.724135,37.595859999999995,Якиманка
762,Кофемания,"Покровка, 18/18, стр. 3",7.5,3.0,55.759117,37.646094,Басманный
763,Булка,"Б.Грузинская, 69",7.5,2.0,55.773975,37.586086,Тверской
764,Воккер,"Крымский Вал, 9, стр. 8, в парке Горького",7.5,1.0,55.71931800000001,37.587955,Якиманка
765,Villa della pasta,"Пятницкая, 26",7.5,2.0,55.740993,37.628208,Замоскворечье
766,Бакинский бульвар,"Неверовского, 15",7.5,3.0,55.738277000000004,37.512541,Дорогомилово
767,Tarantino,"Н.Арбат, 15",7.5,3.0,55.752141,37.592411,Арбат
768,Burger King,"Алтуфьевское ш., 8, ТРЦ «Алтуфьевский»",,1.0,55.85282900000001,37.58579,Отрадное
769,Burger King,"Митинская, 53",,1.0,55.8534,37.351634999999995,Митино
770,Burger King,"Головинское ш., 5, ТЦ «Водный»",,1.0,55.84024,37.492024,Головинский
771,Burger King,"Земляной Вал, 26",,1.0,55.758114,37.657152,Басманный
772,Burger King,"Люблинская 169, корп. 2, ТРЦ «Мариэль»",,1.0,55.648818999999996,37.744962,Марьино
773,Burger King,"Широкая, 13а, ТЦ «Медведковский»",,1.0,55.888048,37.662524,Северное Медведково
774,Burger King,"Зубовский б-р, 17",,1.0,55.736306000000006,37.590497,Хамовники
776,Burger King,"Снежная, 26б",,1.0,55.854997,37.653388,Свиблово
777,Burger King,"Строгинский б-р, 1, ТЦ «Дарья»",,1.0,55.80604399999999,37.395455,Строгино
778,Burger King,"Поляны, 8, ТЦ «Вива»",,1.0,55.565605000000005,37.556128,Северное Бутово
779,Burger King,"Ленинградский просп., 62а, ТК «Галерея Аэропорт»",,1.0,55.801835,37.532098,Аэропорт
780,Burger King,"Автозаводская, 18, ТРЦ «Ривьера»",,1.0,55.705452,37.637749,Даниловский
781,Burger King,"Кировоградская, 24а, ТК «Пражский град»",,1.0,55.612065,37.603118,Чертаново Центральное
783,Burger King,"б-р Дмитрия Донского, 1, ТРЦ «Северное сияние»",,1.0,55.574874,37.580104,Северное Бутово
784,Burger King,"Маршала Катукова, 23",,1.0,55.805665000000005,37.413367,Строгино
785,Burger King,"Азовская, 24, корп. 3, ТРЦ «Азовский»",,1.0,55.647534,37.595555,Зюзино
786,Burger King,"просп. Вернадского, 86б, ТРК «Альмирал»",,1.0,55.661683999999994,37.481469,Тропарёво-Никулино
787,Burger & Pizzetta,"Б.Никитская, 14/2, стр. 7",,2.0,55.756731,37.605373,Пресненский
788,Burger & Pizzoni,"Щепкина, 33",,1.0,55.779687,37.628729,Мещанский
789,Burger Point,"Крымский Вал, 9, в парке Горького",,1.0,55.725908999999994,37.599084999999995,Якиманка
791,Burgers and Crabs,"2-я Звенигородская, 13, стр. 42",,1.0,55.76135,37.551708000000005,Пресненский
792,Суп-кафе,"1-я Брестская, 62",7.5,2.0,55.77516,37.58552,Тверской
794,Brawler's Pub,"Ленинский просп., 61/1",7.5,2.0,55.694855000000004,37.558508,Гагаринский
795,Dark Patrick’s Pub,"Б.Златоустинский пер., 1, стр. 1",7.5,2.0,55.759861,37.631766,Басманный
796,Tin Woodman Bar,"просп. Мира, 26, стр. 1",7.5,1.0,55.77796,37.633068,Мещанский
797,Суп-кафе,"Скаковая, 17, стр. 2",7.5,2.0,55.77791,37.573564000000005,Беговой
798,Трикстер,"Ст.Басманная, 9, корп. 1",7.5,2.0,55.765088,37.657493,Басманный
799,Vietcafé,"Чаянова, 22",7.5,2.0,55.777848999999996,37.598744,Тверской
801,Goodman,"Б.Тульская, 13, ТРЦ «Ереван-плаза», 2 этаж",7.5,3.0,55.708729000000005,37.622091,Даниловский
802,Ламазо,"Алексея Свиридова, 24",7.5,2.0,55.726597999999996,37.449174,Фили-Давыдково
803,Cheapside,"Лесная, 9, БЦ «Белые сады»",7.5,3.0,55.779049,37.588602,Тверской
804,Goodbeef,"Б.Черкасский пер., 15–17, стр. 1",7.5,3.0,55.756386,37.627454,Тверской
805,Кофе-тайм,"Комсомольский просп., 28, МДМ",7.5,2.0,55.726877,37.579645,Хамовники
806,Remy Kitchen Bakery,"М.Бронная, 2, стр. 1",7.5,3.0,55.759101,37.598034000000006,Пресненский
807,1516,"Абельмановская, 4а",7.5,2.0,55.736351,37.670590999999995,Таганский
808,Прованс,"1-й Обыденский пер., 9/12",7.5,3.0,55.743005000000004,37.602256,Хамовники
810,Starbucks,"Ленинградское ш., 16а, стр. 1, БЦ «Метрополис»",7.4,1.0,55.821386,37.497746,Войковский
811,Капучинофф,"просп. Андропова, 37",7.4,2.0,55.673037,37.664608,Нагатинский Затон
812,Тажин,"Трубная, 15",7.4,3.0,55.769352000000005,37.624903,Мещанский
813,Sally O'Brien’s,"Б.Полянка, 1/3",7.4,2.0,55.742219999999996,37.616628999999996,Якиманка
814,Воронеж. Закусочная и мясная лавка,"Пречистенка, 4, 1 этаж",7.4,2.0,55.74457099999999,37.600953999999994,Хамовники
815,Бочка,"ул. 1905 года, 2",7.4,4.0,55.755003,37.560413,Пресненский
816,Burgers & Bakery,"Маросейка, 6/8, стр. 1",,1.0,55.757491,37.635404,Басманный
817,Burger Story,"Ср.Тишинский пер., 28",,1.0,55.770517000000005,37.575486,Пресненский
818,Burger Story,"Фридриха Энгельса, 3/5, стр. 1",,1.0,55.77156,37.679871,Басманный
819,Burger Urway,"Тишинская пл., 1, стр. 1, ТВК «Тишинка»",,1.0,55.769226,37.583372999999995,Пресненский
821,Burmet,"Дмитровское ш., 163а, ТРЦ «Рио Дмитровка»",,1.0,55.909065000000005,37.539248,Северный
823,Butcher,"Б.Патриарший пер., 8, стр. 1",,2.0,55.76288,37.59259,Пресненский
824,Butler,"Трехпрудный пер., 15",,4.0,55.766040000000004,37.595564,Пресненский
825,Buy the Way,"Мневники, 13",,1.0,55.773312,37.485161,Хорошёво-Мнёвники
826,Buy the Way,"Беговая, 14",,1.0,55.77703399999999,37.55637,Беговой
827,Bystro,"Охотный Ряд, 2, гостиница Four Seasons Moscow, 2 этаж",,3.0,55.757303,37.616782,Тверской
828,Cabeen 1,"пл. Савеловского Вокзала, 2, на территории Савеловского вокзала",,1.0,55.794355,37.588108,Бутырский
831,Café 61,"Профсоюзная, 61, стр. 1",,3.0,55.657504,37.542626,Черёмушки
832,Café by Smoothie & Coffee,"Мантулинская, 18",,2.0,55.756223999999996,37.551446999999996,Пресненский
833,Café de arts,"Маршала Соколовского, 5",,3.0,55.792766,37.487856,Щукино
836,Caffe del parco,"Крымская наб., 10, стр. 1",,1.0,55.7363,37.607394,Якиманка
837,Caffe del parco,"Пятницкая, 31/2",,1.0,55.739732,37.628972,Замоскворечье
838,Caffe del parco,"Б.Дмитровка, 1",,1.0,55.758924,37.616440000000004,Тверской
839,Caffe Di...,"Сергия Радонежского, 27, стр. 1",,1.0,55.746931999999994,37.678909000000004,Таганский
840,Палаццо дукале,"Тверской б-р, 3",7.4,4.0,55.758357,37.598052,Пресненский
841,Мясо,"Куусинена, 4а/1",7.4,4.0,55.78027900000001,37.516602,Хорошёвский
842,Pinch,"Б.Палашевский пер., 2",7.4,2.0,55.763341000000004,37.597072999999995,Пресненский
843,Casa di famiglia,"Первомайская, 43, стр. 1",7.4,2.0,55.793414,37.786204,Измайлово
845,"Дорогая, я перезвоню..,","Б.Спасоглинищевский пер., 9, стр. 1",7.4,2.0,55.754679,37.636581,Басманный
846,Одесса-мама,"Украинский б-р, 7",7.4,2.0,55.747774,37.566925,Дорогомилово
847,Босфор,"Арбат, 47/23, стр. 1",7.4,2.0,55.748056999999996,37.587533,Арбат
848,Тибет,"Никольская, 10, ТЦ Nikol'skaya Plaza",7.4,2.0,55.758103000000006,37.624148,Тверской
851,Узбекистан,"Неглинная, 29",7.4,4.0,55.766946999999995,37.620743,Тверской
853,La marée,"Петровка, 28, стр. 1",7.4,4.0,55.767691000000006,37.614195,Тверской
854,Денис Давыдов,"Б.Семеновская, 50",7.4,3.0,55.780142000000005,37.71716,Соколиная Гора
856,Erwin. Рекамореокеан,"Кутузовский просп., 2/1, стр. 6",7.4,3.0,55.752323,37.566764,Дорогомилово
857,Prawns,"парк «Воробьевы горы», Воробьевская наб.",7.4,1.0,55.712132,37.545168,Раменки
858,Punch & Judy,"Пятницкая, 6/1",7.4,2.0,55.744409,37.627319,Замоскворечье
859,Роберто,"Рождественский б-р, 20",7.4,3.0,55.76623299999999,37.630023,Мещанский
860,Братья Караваевы,"Покровка, 14/2",7.4,1.0,55.759085999999996,37.64498,Басманный
861,Argo,"2-я Звенигородская, 12, стр. 13",7.4,2.0,55.761102,37.555723,Пресненский
862,Buro canteen,"Рочдельская, 15, стр. 13, БЦ «Трехгорная мануфактура»",7.4,2.0,55.755991,37.56512,Пресненский
863,Edge,"В.Радищевская, 15, стр. 1",7.4,3.0,55.743416,37.652211,Таганский
864,Caffeine Lab,"Б.Почтовая, 40, стр. 2",,1.0,55.781909,37.697109000000005,Басманный
865,Cake Me,"Б.Садовая, 10",,2.0,55.76721,37.59339,Пресненский
866,Cake Shake,"Манежная пл., 1, стр. 2, ТЦ «Охотный Ряд», –3 этаж",,1.0,55.755773,37.614608000000004,Тверской
868,Camel,"Совхозная, 41",,1.0,55.674575,37.760225,Люблино
869,Camera obscura,"Столешников пер., 9, стр. 3",,1.0,55.763427,37.614788,Тверской
871,Camera obscura,"Дубининская, 68, стр. 3",,1.0,55.722947999999995,37.635449,Замоскворечье
872,Camera obscura,"Большой б-р, 42, стр. 1",,1.0,55.69209,37.34762,Можайский
876,Camorra pizza e birra,"Б.Спасоглинищевский пер., 9/1, стр. 10",,1.0,55.754978,37.637299,Басманный
878,Campus,"Товарищеский пер., 19",,1.0,55.743416,37.663925,Таганский
879,Candy Bar,"просп. Андропова, 22, ТЦ «Нора»",,2.0,55.682706,37.66132,Нагатино-Садовники
880,Cantina City,"Электрозаводская, 27, стр. 4, БЦ «Лефорт»",,1.0,55.790443,37.704359000000004,Преображенское
882,Cantina City,"Дубининская, 53, стр. 5",,1.0,55.72184300000001,37.638674,Даниловский
883,Cantina City,"Ленинградский просп., 72, стр. 4, БЦ «Алкон»",,1.0,55.80524499999999,37.519863,Аэропорт
884,Cantina Mariachi,"Пресненская наб., 2, ТЦ «Афимолл-сити», 5 этаж",,2.0,55.74906,37.539347,Пресненский
886,Capichi Pinza & Coffee,"Ленинградское ш., 16а, стр. 4, ТЦ «Метрополис», 3 этаж",,1.0,55.823211,37.497468,Войковский
887,Capricchio,"Родионовская, 12",,2.0,55.893854000000005,37.389607,Куркино
888,Jacky Jacky Gastrobar,"В.Масловка, 20, стр. 1",7.4,2.0,55.796046,37.562308,Савёловский
889,Le restaurant,"2-я Звенигородская, 13, стр. 1",7.4,3.0,55.762622,37.554582,Пресненский
890,Vietcafé,"Николоямская, 26",7.4,2.0,55.746993,37.654115999999995,Таганский
892,Il forno,"Неглинная, 8/10",7.4,3.0,55.761467,37.620636,Мещанский
893,Андерсон на Гиляровского,"Гиляровского, 39",7.4,2.0,55.783772,37.632368,Мещанский
894,Булочная №5,"Новопесчаная, 2",7.4,1.0,55.802411,37.517338,Сокол
895,Джон Булл,"Карманицкий пер., 9",7.4,3.0,55.748275,37.583571,Арбат
896,Baan Thai,"Б.Дорогомиловская, 11",7.3,3.0,55.74589399999999,37.553388,Дорогомилово
897,Примавера,"Маршала Бирюзова, 21",7.3,2.0,55.794796,37.490353000000006,Щукино
898,Сирена,"Б.Спасская, 15",7.3,4.0,55.774381000000005,37.639635,Красносельский
899,Fumisawa Sushi,"Петровка, 5, ТЦ «Берлинский дом»",7.3,4.0,55.76180600000001,37.617456,Тверской
900,Воккер,"пл. Киевского Вокзала, 2, ТРЦ «Европейский»",7.3,1.0,55.744631999999996,37.566072,Дорогомилово
901,Imagine Café,"Покровка, 16/16, стр. 1",7.3,2.0,55.758899,37.64604,Басманный
902,Red Mango,"Никольская, 4/5",7.3,1.0,55.756037,37.621453,Тверской
904,Шатер,"Чистопрудный б-р, 12а, стр. 6",7.3,3.0,55.760575,37.643273,Басманный
905,Простые вещи,"Б.Никитская, 14/2, стр. 7",7.3,2.0,55.756731,37.605373,Пресненский
906,Devi,"Миклухо-Маклая, 21а",7.3,2.0,55.651577,37.507655,Обручевский
907,Пекарня Мишеля,"Спиридоньевский пер., 12/9",7.3,2.0,55.76289499999999,37.596183,Пресненский
910,Il forno,"Остоженка, 3/14",7.3,3.0,55.74385699999999,37.60196,Хамовники
911,Crafter,"М.Палашевский пер., 6",7.3,1.0,55.7652,37.602705,Тверской
916,Carnaval,"Широкая, 31/5",,2.0,55.887640000000005,37.678523,Северное Медведково
917,Carne Vino,"Кузнецкий Мост, 21/5",,2.0,55.762556000000004,37.627175,Мещанский
919,Casa di Mosca,"Благовещенский пер., 3/1",,3.0,55.767681,37.598096999999996,Тверской
920,Casa Leone,"Лубянский пр., 15, стр. 2",,1.0,55.756817000000005,37.632305,Басманный
921,Casa mia,"66-й км МКАД, пересечение с Волоколамским ш., ТЦ Crocus City Mall",,4.0,55.814836,37.39046,Строгино
922,Casa Roberto,"Одесская, 2а",,2.0,55.664471999999996,37.599238,Зюзино
924,Castello,"Покровка, 17, стр. 1",,2.0,55.759851,37.64577,Басманный
925,Castle,"Комсомольский просп., 4, ТЦ «Акрополь»",,2.0,55.733092000000006,37.592285,Хамовники
926,Castle Dish,"Садовая-Черногрязская, 10/25",,4.0,55.764393999999996,37.655095,Басманный
927,Catch,"Петровка, 30/7",,2.0,55.768071,37.614401,Тверской
929,Caterpillar,"Б.Сухаревский пер., 23, стр. 2",,1.0,55.770998,37.631820000000005,Мещанский
930,Caviar Point,"Н.Арбат, 21",,4.0,55.75204,37.586158000000005,Арбат
932,Centrale,"пл. Киевского Вокзала, 2, ТРЦ «Европейский»",,3.0,55.744631999999996,37.566072,Дорогомилово
933,Cernovar Beer & Burgers,"Ходынский б-р, 4, ТРЦ «Авиапарк», 4 этаж",,2.0,55.790464,37.530409000000006,Хорошёвский
934,Cernovar Beer & Burgers,"Сущевская, 27/7",,2.0,55.782856,37.599795,Тверской
936,Fresh,"Ермолаевский пер., 10/7",7.3,2.0,55.763705,37.59047,Пресненский
937,Ketch Up,"Кузнецкий Мост, 6/3, стр. 3",7.3,2.0,55.761224,37.617571999999996,Тверской
938,Арарат,"просп. Мира, 119, ВДНХ, павильон 68",7.3,2.0,55.826291000000005,37.637614,Останкинский
939,Грузин,"Б.Садовая, 6, стр. 2",7.3,2.0,55.76642,37.592123,Пресненский
940,Пропаганда,"Б.Златоустинский пер., 7",7.3,2.0,55.758742000000005,37.632690999999994,Басманный
942,Starlite Diner,"Коровий Вал, 9а",7.3,2.0,55.729351,37.616243,Якиманка
943,Paprikolli,"Красина, 27, стр. 1",7.3,2.0,55.769524,37.584972,Пресненский
944,Жига-дрыга,"Пятницкая, 62, стр. 3",7.3,1.0,55.73284399999999,37.627032,Замоскворечье
945,Пив & Ко,"Флотская, 5а",7.3,2.0,55.853046,37.492563,Левобережный
946,Клево,"Петровка, 27",7.3,3.0,55.767625,37.613683,Тверской
947,"Пироги, вино и гусь","Цветной б-р, 23",7.3,2.0,55.772512,37.620681,Тверской
948,Florentini City Café,"Ст.Басманная, 9",7.3,2.0,55.765088,37.657493,Басманный
949,Oli Oli,"Поварская, 33",7.3,3.0,55.756831999999996,37.586203000000005,Арбат
950,Starbucks,"1-я Тверская-Ямская, 21, БЦ «Четыре ветра»",7.3,1.0,55.774563,37.587128,Тверской
951,Тануки,"Каширское ш., 46, корп. 1",7.3,2.0,55.647893999999994,37.664788,Москворечье-Сабурово
952,Brix,"М.Козихинский пер., 10, стр. 1",7.3,3.0,55.764348999999996,37.59639,Пресненский
954,Советская чебуречная,"Красина, 27, стр. 1",7.2,1.0,55.769524,37.584972,Пресненский
955,Академия,"Камергерский пер., 2, корп. 1",7.2,3.0,55.759091000000005,37.613054,Тверской
957,Стейк'с,"Ленинградское ш., 80, стр. 1",7.2,3.0,55.847134,37.476698999999996,Головинский
958,"Федя, дичь!","Мытная, 74, Даниловский рынок",7.2,2.0,55.712112,37.620554999999996,Даниловский
959,Dream Bar,"Мясницкая, 17, стр. 1",7.2,2.0,55.763462,37.635304999999995,Красносельский
961,Cezve Coffee,"Подсосенский пер., 8, стр. 2",,1.0,55.758255000000005,37.650037,Басманный
962,Cezve Coffee,"Н.Арбат, 19, павильон 11",,1.0,55.75215600000001,37.588547999999996,Арбат
963,Cha Cha,"Мневники, 21",,2.0,55.773702,37.481253,Хорошёво-Мнёвники
964,Chachalaca,"Планерная, 7, ТПУ «Планерная»",,1.0,55.924319999999994,37.381306,Молжаниновский
965,Chandelier,"1-я ул. Машиностроения, 10",,3.0,55.71419100000001,37.670914,Южнопортовый
967,Charley's Philly Steaks,"84-й км МКАД, пересечение с Алтуфьевским ш., ТРЦ «Весна»",,1.0,55.910895999999994,37.575208,Лианозово
968,Charley's Philly Steaks,"Фестивальная, 2б, ТЦ «Речной»",,1.0,55.855078000000006,37.478082,Левобережный
969,Château Bobroff,"Бобров пер., 4, стр. 1",,3.0,55.765336,37.634173,Красносельский
970,Cheers,"Трехгорный Вал, 14, стр. 1",,2.0,55.75993199999999,37.561275,Пресненский
973,Chef's Table,"Смоленская пл., 3",,4.0,55.747485,37.581298,Арбат
975,Cheshire Place,"Б.Ордынка, 7",,3.0,55.744885,37.624876,Замоскворечье
977,Chever Young,"Измайловский просп., 75/1",,1.0,55.788803,37.793606,Измайлово
978,Chez papa,"Б.Никитская, 19/16",,2.0,55.756928,37.600891,Пресненский
979,Che Аргентино,"87-й км МКАД, ТК «Час пик», 3 этаж",,2.0,55.90163199999999,37.619612,Бибирево
980,Che Аргентино,"Корнейчука, 31а",,2.0,55.898033,37.631397,Бибирево
981,Chicha Morada,"Тверская, 27, стр. 1",,2.0,55.768243000000005,37.59833,Тверской
982,Chicken & Duck,"Ленинградский просп., 37б, ТЦ «Старт»",,1.0,55.7902,37.544647,Хорошёвский
983,Chicken & Pizza,"Мантулинская, 18",,2.0,55.756223999999996,37.551446999999996,Пресненский
984,Buono,"Кутузовский просп., 2/1, стр. 1, гостиница «Radisson Royal Москва», 29, 30 этаж",7.2,4.0,55.743076,37.544225,Дорогомилово
985,Buba by Sumosan,"М.Никитская, 10",7.2,2.0,55.758230000000005,37.594881,Пресненский
986,Chez maman,"Б.Никитская, 21/18",7.2,2.0,55.75718199999999,37.600082,Пресненский
988,Rule Taproom,"Староваганьковский пер., 19, стр. 7",7.2,1.0,55.751335,37.607134,Арбат
990,Метехи,"Обручева, 55а",7.2,2.0,55.650729000000005,37.560188000000004,Черёмушки
991,Нардин,"Гарибальди, 3а",7.2,2.0,55.678225,37.535035,Ломоносовский
992,Тануки,"Варшавское ш., 86",7.2,2.0,55.650241,37.618812,Нагорный
993,Хайям,"2-я Тверская-Ямская, 40/3",7.2,2.0,55.773945,37.59109,Тверской
995,The Сад,"Якиманская наб., 4, стр. 1",7.2,4.0,55.739771999999995,37.612497,Якиманка
996,Грабли,"Б.Тульская, 11, ТДК «Тульский»",7.2,1.0,55.710027000000004,37.623834,Даниловский
997,Тануки,"Щелковское ш., 33",7.2,2.0,55.810272999999995,37.783042,Гольяново
999,Royal Bar,"Ленинградское ш., 39, стр. 23",7.2,4.0,55.836797,37.479313,Войковский
1000,I Like Bar 2.0,"Марксистская, 7",7.2,3.0,55.736265,37.666108,Таганский
1002,Studio,"Ярцевская, 19, МФК «Кунцево-плаза», 1 этаж",7.2,2.0,55.73859100000001,37.411004999999996,Кунцево
1003,Арагви,"Тверская, 6/2",7.2,3.0,55.761487,37.610772,Тверской
1004,Батони,"Б.Дорогомиловская, 12а",7.2,2.0,55.746542000000005,37.561113,Дорогомилово
1005,Didu,"Мясницкая, 24/7, стр. 1",7.2,2.0,55.762443999999995,37.635593,Басманный
1006,La prima,"Б.Дмитровка, 32, стр. 1",7.2,4.0,55.76565,37.610844,Тверской
1007,Bich Cau,"Коптевская, 65а",7.1,2.0,55.82953199999999,37.516861999999996,Коптево
1008,Chico Burritos & Tacos,"Манежная пл., 1, стр. 2, ТЦ «Охотный Ряд»",,1.0,55.755773,37.614608000000004,Тверской
1009,Chico Burritos & Tacos,"Таганская, 1, ТЦ «Звездочка», 3 этаж",,1.0,55.741783999999996,37.655894,Таганский
1011,Chill Bro,"Рочдельская, 15, стр. 13, БЦ «Трехгорная мануфактура»",,1.0,55.755991,37.56512,Пресненский
1013,China Bistro,"Тверская, 7",,1.0,55.757971999999995,37.611203,Тверской
1014,Chipl,"Земляной Вал, 39/1, стр. 1",,1.0,55.755267,37.657808,Басманный
1015,Choice,"Б.Дмитровка, 32, стр. 1",,2.0,55.76565,37.610844,Тверской
1016,Choice Moscow,"Лужнецкая наб., 2/4, стр. 27",,2.0,55.713253,37.571022,Хамовники
1017,Cho phở,"Ст.Басманная, 15, в саду им. Баумана",,1.0,55.765853,37.660404,Басманный
1018,Chowder & Pie,"Мытная, 74, Даниловский рынок",,1.0,55.712112,37.620554999999996,Даниловский
1019,Ciao Bella,"Генерала Берзарина, 8",,3.0,55.787983,37.490973,Щукино
1020,Cibo e vino,"Новокуркинское ш., 1, ТЦ «Парус»",,3.0,55.884964000000004,37.407196,Куркино
1021,Cicco,"Азовская, 8–10",,3.0,55.659201,37.600181,Зюзино
1022,Cinnabon,"пл. Киевского Вокзала, 2, ТРЦ «Европейский», 4 этаж",,1.0,55.744631999999996,37.566072,Дорогомилово
1023,Cinnabon,"41-й км МКАД, пересечение с Калужским ш., ТЦ «Мега Теплый Стан»",,1.0,55.609823,37.49329,Ясенево
1024,Cinnabon,"Ленинградское ш., 16а, стр. 4, ТЦ «Метрополис»",,1.0,55.823211,37.497468,Войковский
1027,Cinnabon,"Авиамоторная, 41б",,1.0,55.753457999999995,37.716513,Лефортово
1028,Cinnabon,"84-й км МКАД, пересечение с Алтуфьевским ш., ТРЦ «Весна»",,1.0,55.910895999999994,37.575208,Лианозово
1029,Cinnabon,"Ярцевская, 19, МФК «Кунцево-плаза»",,1.0,55.73859100000001,37.411004999999996,Кунцево
1030,Cinnabon,"Манежная пл., 1, стр. 2, ТЦ «Охотный Ряд»",,1.0,55.755773,37.614608000000004,Тверской
1031,Cinnabon,"Арбат, 22/2, стр. 4",,1.0,55.75015,37.593183,Арбат
1032,Колбасофф,"Щукинская, 42, ТРК «Щука», 5 этаж",7.1,2.0,55.80946899999999,37.464571,Щукино
1033,Кабанчик,"Красина, 27, стр. 1",7.1,2.0,55.769524,37.584972,Пресненский
1035,Molly Gwynn’s,"Пятницкая, 24",7.1,3.0,55.741262,37.628271000000005,Замоскворечье
1036,Ц.Д.Л.,"Поварская, 50/53",7.1,3.0,55.75745,37.587344,Пресненский
1037,El asador,"Б.Ордынка, 45/8, стр. 3",7.1,3.0,55.73493199999999,37.624624,Замоскворечье
1038,Мечта,"Садовническая, 84, стр. 3–7",7.1,3.0,55.734171999999994,37.642185999999995,Замоскворечье
1039,Madame Wong,"Лесная, 7, БЦ «Белые сады», 1 этаж",7.1,3.0,55.778668999999994,37.587964,Тверской
1040,Шоколад,"Профсоюзная, 45а",7.1,2.0,55.666878000000004,37.55187,Черёмушки
1041,White Hart Pub,"Неглинная, 10",7.1,3.0,55.76214,37.620411,Мещанский
1042,Боцман,"5-я Кожуховская, 10, корп. 1",7.1,2.0,55.704854000000005,37.667105,Даниловский
1043,Воккер,"Воронцовские Пруды, 5, в парке «Воронцовский»",7.1,1.0,55.663903000000005,37.534532,Обручевский
1044,Последняя капля,"Страстной б-р, 4, стр. 3",7.1,2.0,55.764865,37.608383,Тверской
1045,Vietcafé,"Наметкина, 21а",7.1,2.0,55.663537,37.556217,Черёмушки
1046,Самарканд,"просп. Мира, 48",7.1,2.0,55.781813,37.634344,Мещанский
1047,Грабли,"Семеновская пл., 1а, БЦ «Соколиная Гора»",7.1,1.0,55.782724,37.717815,Соколиная Гора
1048,Джоведи,"Озерковская наб., 26",7.1,3.0,55.739428000000004,37.638314,Замоскворечье
1049,Кавказская пленница,"просп. Мира, 36",7.1,3.0,55.779059,37.633787,Мещанский
1050,Кофемания,"Комсомольский просп., 21, стр. 2",7.1,3.0,55.727856,37.584002000000005,Хамовники
1051,Йоркшир,"Лавочкина, 34",7.1,3.0,55.856294999999996,37.493919,Ховрино
1052,Дом 12,"Мансуровский пер., 12",7.1,3.0,55.740624,37.592932,Хамовники
1053,Жан-Жак,"Никитский б-р, 12",7.1,2.0,55.755388,37.60054,Пресненский
1055,Баловень,"Валовая, 11/19",7.1,2.0,55.73021800000001,37.63243,Замоскворечье
1056,Cinque terre,"Бутырская, 97",,1.0,55.807542000000005,37.579529,Савёловский
1058,City Lunch,"Варшавское ш., 11",,1.0,55.699949,37.622009999999996,Донской
1059,City Lunch,"Кировоградская, 23а, корп. 1, БЦ Solutions",,1.0,55.60012,37.600873,Чертаново Южное
1060,City Lunch,"5-я ул. Ямского Поля, 5, стр. 1, БЦ Solutions",,1.0,55.785341,37.584658000000005,Беговой
1061,City Pizza,"Воронцовская, 21",,2.0,55.736681000000004,37.659838,Таганский
1062,City Pizza,"Маломосковская, 22",,2.0,55.811538,37.652741,Алексеевский
1063,City Pizza,"Исаковского, 33, корп. 3",,2.0,55.804987,37.420617,Строгино
1065,Clockwork House,"Ср.Кисловский пер., 3, стр. 1а",,1.0,55.755458999999995,37.604403000000005,Пресненский
1068,Coffee and the City,"Б.Новодмитровская, 36, стр. 4, дизайн-завод «Флакон»",,1.0,55.804739,37.585925,Бутырский
1070,Coffee and the City,"пр. Дежнева, 1, БЦ «Дежнев-плаза»",,1.0,55.871182999999995,37.649759,Южное Медведково
1075,Coffee and the City,"просп. Андропова, 22, БЦ «Нагатинский»",,1.0,55.682706,37.66132,Нагатино-Садовники
1080,Сан-Ремо,"Б.Каменщики, 2",7.1,3.0,55.738764,37.652777,Таганский
1081,Хлеб насущный,"Камергерский пер., 6/5",7.1,2.0,55.759997999999996,37.61415,Тверской
1082,Библиайтека,"Новинский б-р, 8, ТЦ Lotte Plaza, 6 этаж",7.1,2.0,55.75131,37.584613,Арбат
1083,Da Pino,"Перовская, 32, стр. 1",7.1,2.0,55.745215,37.776278000000005,Перово
1085,Villa Sumosan,"Бурденко, 3",7.1,4.0,55.738448999999996,37.581236,Хамовники
1086,Джимми Ли,"просп. Мира, 12, стр. 1",7.1,2.0,55.774639,37.632637,Мещанский
1088,Эль гаучито,"Поварская, 11, корп. 1",7.1,4.0,55.754026,37.594297,Арбат
1089,Il pittore,"Нахимовский просп., 45, корп. 1",7.1,3.0,55.674873999999996,37.569,Черёмушки
1091,Cuba libre,"Кузнецкий Мост, 4",7.1,2.0,55.760879,37.616764,Тверской
1093,Жизнь Пи,"Саввинская наб., 21а, стр. 1",7.1,3.0,55.733847,37.564042,Хамовники
1094,Белое солнце пустыни,"Неглинная, 29",7.0,4.0,55.766946999999995,37.620743,Тверской
1095,Menza,"Б.Дмитровка, 32",7.0,2.0,55.76541700000001,37.611033,Тверской
1097,Сейджи,"Комсомольский просп., 5/2",7.0,4.0,55.731916000000005,37.593156,Хамовники
1098,Герои,"Трубная, 23, стр. 2",7.0,2.0,55.770765000000004,37.625136,Мещанский
1099,Кензо,"Лескова, 19а, стр. 2",7.0,2.0,55.894307999999995,37.616944000000004,Бибирево
1100,Матрешка,"Кутузовский просп., 2/1, стр. 6",7.0,4.0,55.752323,37.566764,Дорогомилово
1101,Paulaner Bräuhaus,"Шлюзовая наб., 2/1, стр. 1",7.0,2.0,55.732271,37.642069,Замоскворечье
1102,Восточный квартал,"Арбат, 45/24",7.0,2.0,55.748290000000004,37.588206,Арбат
1103,Стара Юга,"Кржижановского, 15, корп. 1",7.0,2.0,55.680275,37.570653,Академический
1104,Coffee and the City,"Волгоградский просп., 42, корп. 13",,1.0,55.710190000000004,37.721256,Печатники
1112,Coffee and the City,"Коломенский пр., 14,  в парке «Садовники»",,1.0,55.665355000000005,37.652795000000005,Нагатино-Садовники
1113,Coffee and the City,"Сколковское ш., 31, ТЦ «Спортхит»",,1.0,55.70601,37.404375,Можайский
1114,Coffee and the City,"Волгоградский просп., 32, корп. 11",,1.0,55.72284200000001,37.692339000000004,Южнопортовый
1115,Coffee and the City,"Куликовская, 6, ТЦ «Алфавит», 4 этаж",,1.0,55.574055,37.565389,Северное Бутово
1116,Coffee and the City,"Смольная, 24",,1.0,55.860661,37.483041,Ховрино
1119,Coffee and the City,"Кировоградская, 14, ТЦ «Глобал-сити»",,1.0,55.622604,37.60593,Чертаново Северное
1120,Coffee and the City,"Мячковский б-р, в Братиславском парке",,1.0,55.654045999999994,37.757135,Марьино
1121,Coffee and the City,"Садовая-Спасская, 21",,1.0,55.769422999999996,37.649291999999996,Красносельский
1122,Coffee and the City,"Борисовские Пруды, в Братеевском каскадном парке",,1.0,55.635858,37.738387,Братеево
1130,Coffee Bean,"Хачатуряна, 16",,1.0,55.860489,37.602948,Отрадное
1131,Coffee Bean,"Б.Никитская, 14",,1.0,55.756665000000005,37.605795,Пресненский
1132,Coffee Bean,"Сельскохозяйственная, 17, корп. 1",,1.0,55.837414,37.636356,Ростокино
1133,Coffee Bean,"Пресненская наб., 6, стр. 2, БЦ «Башня Империя»",,1.0,55.748143000000006,37.540488,Пресненский
1134,Coffee Bean,"Долгоруковская, 39/6",,1.0,55.778558,37.600747,Тверской
1135,Coffee Berry,"Павловская, 7, БЦ «Ангар»",,1.0,55.719972,37.628262,Даниловский
1136,Coffee Berry,"Маломосковская, 22, БЦ «Антарис»",,1.0,55.811538,37.652741,Алексеевский
1137,Coffee Bikini,"Маросейка, 15",,1.0,55.757920999999996,37.636778,Басманный
1138,Coffee & Books,"Земляной Вал, 33, ТРК «Атриум», 3 этаж, в помещении магазина «Республика»",,1.0,55.757339,37.659164000000004,Басманный
1141,Coffee Brain,"Измайловское ш., 44",,1.0,55.779322,37.733464,Соколиная Гора
1142,Coffee Crew на Миклухо-Маклая,"Миклухо-Маклая, 33",,1.0,55.645959,37.519395,Коньково
1143,Крепери де Пари,"Профсоюзная, 12",7.0,2.0,55.68543199999999,37.570122999999995,Академический
1144,Coffee Crew на Мичуринском,"Мичуринский просп., 34",,1.0,55.69834,37.498025,Раменки
1145,Coffee Energy,"Театральная аллея, 3, стр. 1, ТЦ «Динамо», 1 этаж",,1.0,55.793227,37.559883,Аэропорт
1146,Буйабес,"Ленинский просп., 37",7.0,4.0,55.709865,37.5865,Донской
1147,Дед Пихто,"Мясницкая, 37, стр. 3",7.0,3.0,55.76694200000001,37.640767,Красносельский
1148,Coffee Energy,"3-я Хорошевская, 2, стр. 1",,1.0,55.777772999999996,37.502992,Хорошёво-Мнёвники
1149,Coffee Flame,"Казакова, 8, стр. 6",,1.0,55.762434,37.660305,Басманный
1153,Coffee Moments,"Дмитровское ш., 60, БЦ «Селигер»",,1.0,55.8529,37.567446000000004,Бескудниковский
1154,Клава,"М.Бронная, 26, стр. 1",7.0,2.0,55.763478000000006,37.59445,Пресненский
1155,32.05,"Каретный Ряд, 3, в Саду «Эрмитаж»",7.0,3.0,55.770796,37.609272,Тверской
1156,Coffee Moments,"5-й Донской пр., 15",,1.0,55.707415000000005,37.598869,Донской
1157,Колбасофф,"Симферопольский б-р, 22, корп. 2",7.0,2.0,55.647447,37.604753,Зюзино
1159,Недальний Восток,"Тверской б-р, 15, стр. 2",7.0,4.0,55.760616000000006,37.600217,Пресненский
1161,Аддис-Абеба,"Земляной Вал, 6, стр. 1",7.0,2.0,55.762429000000004,37.656290000000006,Басманный
1162,Lambic,"просп. Мира, 26, стр. 7",7.0,3.0,55.777260999999996,37.635771999999996,Мещанский
1163,Shaggy,"Льва Толстого, 5/1",7.0,2.0,55.732154,37.588763,Хамовники
1164,Йоркшир,"Гризодубовой, 4, корп. 1",7.0,3.0,55.78321,37.528127000000005,Хорошёвский
1165,Старая башня,"Театральная пл., 5, стр. 1",7.0,3.0,55.756806999999995,37.620564,Тверской
1166,Тануки,"3-я Владимирская, 29",7.0,2.0,55.753413,37.791647999999995,Перово
1167,Тапчан,"Звенигородское ш., 18/20",7.0,2.0,55.764825,37.555768,Пресненский
1168,Хинкальная на Щепкина,"Щепкина, 25/20",7.0,2.0,55.777788,37.628729,Мещанский
1170,Светлый,"Б.Харитоньевский пер., 21, стр. 3",7.0,3.0,55.766572,37.650352000000005,Басманный
1171,Kalina Bar,"Новинский б-р, 8, ТЦ Lotte Plaza, 21 этаж",7.0,4.0,55.75131,37.584613,Арбат
1172,Итальянец,"Самотечная, 13",7.0,3.0,55.777530000000006,37.61759,Тверской
1175,Хачапурия,"Б.Никитская, 26",7.0,2.0,55.757404,37.600711,Пресненский
1176,Колбасофф,"Таганская, 21",7.0,2.0,55.74001,37.663692,Таганский
1177,Мираж,"Миклухо-Маклая, 13",7.0,1.0,55.652654000000005,37.504412,Обручевский
1178,Сам пришел,"просп. Вернадского, 76а",7.0,3.0,55.67013299999999,37.493632,Проспект Вернадского
1179,Две палочки,"Мясницкая, 24",7.0,2.0,55.76266700000001,37.635206,Басманный
1181,"Есть хинкали, пить вино","М.Бронная, 4",7.0,2.0,55.759552,37.597477000000005,Пресненский
1182,Кондитерская Олега Ильина,"Удальцова, 1, корп. 1",7.0,2.0,55.67152900000001,37.517922,Проспект Вернадского
1183,Поместье,"Таманская, влад. 46, стр. 1, Серебряный Бор",7.0,3.0,55.790636,37.413771999999994,Хорошёво-Мнёвники
1184,Белфаст,"Ср.Овчинниковский пер., 1, стр. 13, вход с Овчинниковской наб.",7.0,2.0,55.745134,37.630652000000005,Замоскворечье
1185,Простые вещи,"Пятницкая, 29",7.0,2.0,55.74094300000001,37.628756,Замоскворечье
1186,Жан-Жак,"Цветной б-р, 24, корп. 1",7.0,2.0,55.771058999999994,37.622396,Мещанский
1187,Дионис,"Миклухо-Маклая, 3",6.9,2.0,55.65508199999999,37.498734000000006,Обручевский
1189,Жан-Жак,"Льва Толстого, 18б",6.9,2.0,55.735028,37.585503,Хамовники
1191,Black Market,"Усачева, 2, стр. 1",6.9,3.0,55.730847,37.576789,Хамовники
1192,Тан,"Оружейный пер., 13, стр. 1",6.9,3.0,55.771772999999996,37.599543,Тверской
1193,Ichiban Boshi,"Б.Якиманка, 50",6.9,2.0,55.73218000000001,37.611167,Якиманка
1194,Бакинский бульвар,"Наметкина, 3",6.9,3.0,55.666056000000005,37.545823999999996,Обручевский
1195,Джонджоли,"Пятницкая, 29",6.9,2.0,55.74094300000001,37.628756,Замоскворечье
1196,Штирбирлиц,"Ярославская, 10, корп. 5",6.9,2.0,55.819049,37.648798,Алексеевский
1197,Кофе пью,"Чистопрудный б-р, 9, стр. 1",6.9,2.0,55.76286999999999,37.643668,Басманный
1198,Академия,"Волхонка, 15/17",6.9,3.0,55.745422,37.604816,Хамовники
1199,Брюгге,"Бауманская, 48/13",6.9,2.0,55.770011,37.678846,Басманный
1200,Coffee Moments,"Шаболовка, 31б",,1.0,55.720611,37.610359,Донской
1201,Coffee Moments,"Золоторожский Вал, 11, стр. 22",,1.0,55.749927,37.704736,Лефортово
1202,Coffee Moments,"Ленинская Слобода, 26, стр. 2, ТЦ «Оранж-парк»",,1.0,55.71214200000001,37.656631,Даниловский
1203,Coffee Moments,"Ленинская Слобода, 26, корп. С",,1.0,55.710124,37.654601,Даниловский
1204,Coffee Nat,"Адмирала Лазарева, 24, ТЦ «Успех»",,1.0,55.546868,37.532538,Южное Бутово
1205,Coffee One Love,"Звездный б-р, 21, стр. 1",,1.0,55.811513,37.624714000000004,Останкинский
1206,Coffee One Love,"Березовая аллея, 5а, стр. 5",,1.0,55.848291,37.619791,Останкинский
1207,Coffee One Love,"Енисейская, 19",,1.0,55.868688,37.662515,Бабушкинский
1209,Coffee Play,"Долгопрудненское ш., 3",,1.0,55.921611999999996,37.534918,Северный
1210,Coffee Point,"Мурманский пр., 14, корп. 1",,1.0,55.807015,37.622315,Останкинский
1211,Coffee Point,"Станиславского, 21, стр. 2, БЦ «Фабрика Станиславского»",,1.0,55.745716,37.663539,Таганский
1212,Coffee Point,"просп. Андропова, 18, корп. 1",,1.0,55.695027,37.662812,Даниловский
1213,Coffee Point,"просп. Андропова, 18, корп. 5",,1.0,55.692308,37.662785,Даниловский
1215,Coffee Point,"Обручева, 30, БЦ «Кругозор»",,1.0,55.656275,37.525989,Коньково
1216,Coffee Point,"Волгоградский просп., 47, БЦ The Cube",,1.0,55.712589,37.72387,Печатники
1217,Coffee Point,"Гамсоновский пер., 2, БЦ «Центр-Т»",,1.0,55.707491000000005,37.626492999999996,Даниловский
1218,Coffee Point,"просп. Андропова, 18, корп. 9",,1.0,55.691683999999995,37.66062,Даниловский
1219,Coffee Point,"Щелковское ш., 100, корп. 5",,1.0,55.812847999999995,37.834875,Северное Измайлово
1220,Coffee Room,"Арбат, 13",,2.0,55.751249,37.597423,Арбат
1221,Coffee Room,"просп. Вернадского, 6, ТЦ «Капитолий Вернадского», 3 этаж",,2.0,55.69195799999999,37.527956,Раменки
1223,Coffeeshop Company,"просп. Мира, 211, ТРЦ «Золотой Вавилон»",,1.0,55.84585500000001,37.662093,Свиблово
1224,Чайхона №1,"Флотская, 3",6.9,3.0,55.850660999999995,37.485529,Левобережный
1225,Il pomodoro,"Садовническая, 54, стр. 2",6.9,3.0,55.743299,37.638359,Замоскворечье
1226,Келья,"пер. Сивцев Вражек, 3/18",6.9,3.0,55.747054000000006,37.598393,Хамовники
1227,Грабли,"пл. Киевского Вокзала, 2, ТРЦ «Европейский», 4 этаж",6.9,1.0,55.744631999999996,37.566072,Дорогомилово
1228,Сытый лось,"Люблинская, 4а",6.9,2.0,55.705904000000004,37.730625,Текстильщики
1229,Пятый океан,"Марксистская, 20, стр. 1",6.9,2.0,55.738231000000006,37.659775,Таганский
1230,Хлеб насущный,"Лесная, 5, БЦ «Белая площадь»",6.9,2.0,55.77778299999999,37.586877,Тверской
1231,Coffee Bean,"Покровка, 21",6.9,1.0,55.759689,37.64719,Басманный
1232,Андерсон на Академика Туполева,"наб. Академика Туполева, 15",6.9,2.0,55.760692000000006,37.68217,Басманный
1233,Бейрут,"Миклухо-Маклая, 21, корп. 1",6.9,2.0,55.651759999999996,37.508265,Обручевский
1235,Юность,"Последний пер., 2/20",6.9,2.0,55.769611,37.626259000000005,Мещанский
1236,Нудл-мама,"Крымская наб., 10, стр. 5",6.9,1.0,55.7363,37.607394,Якиманка
1237,Union Jack,"Ниж.Кисельный пер., 3, стр. 1",6.9,2.0,55.765336,37.621579,Мещанский
1239,Братья Караваевы,"Тверской б-р, 20, стр. 2",6.9,1.0,55.761097,37.602463,Пресненский
1240,Coffeeshop Company,"Маши Порываевой, 34, БЦ «Домников»",,1.0,55.77216800000001,37.648456,Красносельский
1241,Воккер,"Миклухо-Маклая, 32а, ТЦ «Капитолий Беляево»",6.9,1.0,55.640889,37.530732,Коньково
1243,Coffeeshop Company,"Арбат, 1",,1.0,55.751812,37.599292,Арбат
1244,Тануки,"Боровское ш., 31",6.9,2.0,55.642453,37.361517,Ново-Переделкино
1246,Bocconcino,"Новослободская, 24, стр. 1",6.9,3.0,55.782906000000004,37.598232,Тверской
1247,Coffeeshop Company,"просп. Вернадского, 6, ТЦ «Капитолий Вернадского»",,1.0,55.69195799999999,37.527956,Раменки
1248,Coffeeshop Company,"24-й км МКАД, пересечение с Каширским ш., ТРЦ Vegas, 2 этаж",,1.0,55.59399499999999,37.734946,Орехово-Борисово Южное
1249,Простые вещи,"Конюшковская, 32",6.8,2.0,55.759997999999996,37.578918,Пресненский
1250,Hooters,"Б.Златоустинский пер., 9",6.8,2.0,55.758347,37.633140000000004,Басманный
1251,Coffeeshop Company,"Рождественка, 5/7, стр. 2",,1.0,55.761148,37.623304,Мещанский
1253,Coffeeshop Company,"Б.Дмитровка, 7/5",,1.0,55.760434,37.614419,Тверской
1254,Вино и бургер,"Б.Полянка, 51а/9",6.8,1.0,55.7322,37.620869,Якиманка
1255,Чайхона №1 Тимура Ланского,"Лодочная, 4",6.8,3.0,55.835776,37.455085,Южное Тушино
1256,Coffeeshop Company,"Балчуг, 7, БЦ «Балчуг-плаза»",,1.0,55.74674,37.626241,Замоскворечье
1257,Coffeeshop Company,"Гамсоновский пер., 2, БЦ «Центр-Т»",,1.0,55.707491000000005,37.626492999999996,Даниловский
1258,Coffeeshop Company,"пл. Киевского Вокзала, 2, ТРЦ «Европейский», 1 этаж",,1.0,55.744631999999996,37.566072,Дорогомилово
1260,Coffeeshop Company,"Кировоградская, 13а, ТЦ Columbus",,1.0,55.612182,37.607026,Чертаново Центральное
1261,Coffeeshop Company,"Мясницкая, 24/7",,1.0,55.76266700000001,37.635206,Басманный
1263,Coffeeshop Company,"пл. Киевского Вокзала, 2, ТРЦ «Европейский», 2 этаж",,1.0,55.744631999999996,37.566072,Дорогомилово
1264,Coffeeshop Company,"Известковый пер., 1",,1.0,55.745118000000005,37.656146,Таганский
1265,Coffeeshop Company,"Рублевское ш., 62, ТРЦ «Европарк», 1 этаж",,1.0,55.766212,37.380875,Крылатское
1268,Coffeeshop Company,"Валовая, 2–4/44",,1.0,55.73120600000001,37.635269,Замоскворечье
1269,Coffeeshop Company,"Хорошевское ш., 27, ТРЦ «Хорошо!», 1 этаж",,1.0,55.777083999999995,37.523653,Хорошёвский
1270,Coffee Shot,"ш. Энтузиастов, 12, корп. 2, ТК «Город Лефортово»",,2.0,55.747363,37.707097999999995,Лефортово
1271,Coffeesphere,"1-й Нагатинский пр., 11, корп. 2",,1.0,55.677539,37.634398,Нагатино-Садовники
1272,Coffee to Business,"просп. Мира, 102, корп. 1, БЦ «Парк мира»",,1.0,55.800726,37.636733,Алексеевский
1273,Coffee Way,"Новорязанская, 25, стр. 1",,1.0,55.772264,37.664393,Басманный
1274,Coffee Way,"Новоясеневский просп., 11, ТК «Золотой Вавилон Ясенево»",,1.0,55.606669999999994,37.536284,Ясенево
1275,Coffee Way,"Зеленый просп., 20, БЦ «Зеленый, 20»",,1.0,55.750104,37.787309,Новогиреево
1276,Coffee Way,"В.Красносельская, 3а, ТДК «Тройка»",,1.0,55.785513,37.665408,Красносельский
1277,Coffee Way,"2-я Синичкина, 9а, стр. 5, БЦ «Синица-плаза»",,1.0,55.761193000000006,37.718175,Лефортово
1278,Coffee Way,"Маломосковская, 22, БЦ «Антарис»",,1.0,55.811538,37.652741,Алексеевский
1280,Coffee Way,"Сущевский Вал, 5, стр. 1, ТК «Савеловский», на территории ТЦ «Компьютерный»",,1.0,55.794401,37.592042,Марьина Роща
1282,Coffee Way,"Сущевский Вал, 5, стр. 1, ТК «Савеловский», на территории ТЦ «Мобильный», павильон 125",,1.0,55.794401,37.592042,Марьина Роща
1284,Coffee Way,"Комсомольская пл., 2а",,1.0,55.77501899999999,37.657098,Красносельский
1285,Coffe Mix,"Рязанский просп., 75, корп. 2",,1.0,55.717528,37.793552000000005,Рязанский
1286,Cofix,"Манежная пл., 1, стр. 2, ТЦ «Охотный Ряд»",,1.0,55.755773,37.614608000000004,Тверской
1288,Cofix,"Головинское ш., 5, ТЦ «Водный»",,1.0,55.84024,37.492024,Головинский
1291,Colton,"Люсиновская, 7/8, стр. 1",,2.0,55.728595999999996,37.623636,Замоскворечье
1293,Comedy Café,"Дмитровское ш., 163а, корп. 1, ТРЦ «Рио»",,2.0,55.90936800000001,37.540362,Северный
1296,Аромасс,"Кржижановского, 20/30, корп. 1",6.8,2.0,55.679052,37.572278999999995,Академический
1297,Казбек,"ул. 1905 года, 2",6.8,3.0,55.755003,37.560413,Пресненский
1298,Chelsea,"М.Гнездниковский пер., 12",6.8,3.0,55.762525,37.606703,Тверской
1299,Журфак,"Б.Афанасьевский пер., 3",6.8,2.0,55.745149,37.596615,Хамовники
1300,Штолле,"Б.Садовая, 3",6.8,1.0,55.767387,37.592114,Пресненский
1301,Старый Пафос,"Садовая-Триумфальная, 22/31",6.8,3.0,55.77180799999999,37.603577,Тверской
1302,Шикари,"Волгоградский просп., 119а",6.8,2.0,55.706284,37.765372,Кузьминки
1303,Югославия,"Николоямская, 40/22, стр. 4",6.8,2.0,55.74678,37.659308,Таганский
1304,I Love Cake,"Б.Патриарший пер., 4",6.8,2.0,55.762449,37.591916,Пресненский
1305,Москафе,"Ленинградский просп., 24",6.8,3.0,55.78256700000001,37.573753,Беговой
1307,Starlite Diner,"Страстной б-р, 8а",6.8,2.0,55.76625799999999,37.610826,Тверской
1308,Easy Brix Grill & Wine,"Пятницкая, 73",6.8,2.0,55.730557999999995,37.626034000000004,Замоскворечье
1309,Ess-Thetik,"М.Бронная, 20, стр. 1",6.8,2.0,55.762328000000004,37.595779,Пресненский
1310,Капучино,"Никитский б-р, 12",6.8,2.0,55.755388,37.60054,Пресненский
1312,Тема,"Потаповский пер., 5, стр. 2",6.8,2.0,55.761618999999996,37.64065,Басманный
1313,Law & Son,"Садовая-Каретная, 24/7",6.8,2.0,55.77299300000001,37.611733,Тверской
1314,Анджело,"просп. 60-летия Октября, 5, корп. 3",6.8,4.0,55.703286,37.580616,Гагаринский
1315,Маркет,"Садовая-Самотечная, 18, стр. 1",6.8,4.0,55.773191000000004,37.618784999999995,Тверской
1316,Батони,"Новослободская, 18",6.8,2.0,55.782318999999994,37.599416999999995,Тверской
1317,Luce,"1-я Тверская-Ямская, 21, БЦ Four Winds Plaza",6.7,4.0,55.774563,37.587128,Тверской
1318,Starlite Diner,"просп. Вернадского, 6, ТЦ «Капитолий Вернадского», 3 этаж",6.7,2.0,55.69195799999999,37.527956,Раменки
1319,Soluxe Club,"Кутузовский просп., 2/1, стр. 6",6.7,3.0,55.752323,37.566764,Дорогомилово
1320,Community,"Космодамианская наб., 2",,4.0,55.745914,37.638171,Замоскворечье
1322,Connolly Station,"Столешников пер., 8",,3.0,55.76228199999999,37.61291,Тверской
1323,Contrabanda,"2-я Звенигородская, 12, стр. 18",,2.0,55.76224200000001,37.555884999999996,Пресненский
1324,Contrabanda,"Ленинская Слобода, 26, стр. 23",,2.0,55.711335999999996,37.656729999999996,Даниловский
1325,Cool,"Б.Никитская, 24",,1.0,55.757631999999994,37.601933,Пресненский
1326,Cool,"Б.Полянка, 51а/9",,1.0,55.7322,37.620869,Якиманка
1331,Cork Wine Bar,"М.Бронная, 2, стр. 1",,1.0,55.759101,37.598034000000006,Пресненский
1332,Corneli Pizza,"Героев Панфиловцев, 7, ТЦ «Манго»",,1.0,55.85714399999999,37.43207,Северное Тушино
1333,Corner Café & Kitchen,"Композиторская, 17",,2.0,55.751224,37.586302,Арбат
1334,Corner Grill,"Алтуфьевское ш., 16",,2.0,55.857321,37.585673,Отрадное
1335,Correa's,"41-й км МКАД, пересечение с Калужским ш., ТЦ «Мега Теплый Стан»",,2.0,55.609823,37.49329,Ясенево
1336,Correa's,"Романов пер., 4, БЦ «Романов двор»",,2.0,55.754568000000006,37.609488,Арбат
1338,Costa Coffee,"Краснопресненская наб., 12, ЦМТ",,1.0,55.754203000000004,37.556388,Пресненский
1339,Costa Coffee,"Душинская, 7",,1.0,55.745073,37.70647,Лефортово
1341,Costa Coffee,"41-й км МКАД, пересечение с Калужским ш., ТЦ OBI",,1.0,55.609823,37.49329,Ясенево
1342,Costa Coffee,"Вавилова, 3, ТРЦ «Гагаринский»",,1.0,55.706883,37.592096000000005,Донской
1343,Costa Coffee,"Б.Тульская, 10, стр. 9",,1.0,55.706106999999996,37.618686,Даниловский
1345,Tiberio,"Шипиловская, 28а, гостиница «Милан»",6.7,2.0,55.618745,37.715138,Орехово-Борисово Северное
1346,Vietcafé,"Кржижановского, влад. 22, стр. 1",6.7,2.0,55.67769200000001,37.574363,Академический
1347,Пивнушка,"Ленинский просп., 28",6.7,3.0,55.713451,37.588566,Донской
1348,Шабада,"Сельскохозяйственная, 26, стр. 23",6.7,2.0,55.837458999999996,37.641467999999996,Ростокино
1349,Pâté & Co,"Балчуг, 3/2",6.7,2.0,55.747616,37.625981,Замоскворечье
1350,Тануки,"Генерала Белова, 15",6.7,2.0,55.621175,37.717806,Орехово-Борисово Северное
1351,Wake Up Café,"Тимура Фрунзе, 20",6.7,1.0,55.735155000000006,37.589195000000004,Хамовники
1352,Арарат,"Неглинная, 4, гостиница «Арарат Парк Хаятт Москва», 1 этаж",6.7,4.0,55.759912,37.621471,Мещанский
1353,Барашка,"ул. 1905 года, 2, стр. 1",6.7,3.0,55.755353,37.560071,Пресненский
1354,Жаровня. Флагман,"Б.Дмитровка, 11, стр. 1",6.7,2.0,55.762064,37.613512,Тверской
1355,The Standard,"Б.Златоустинский пер., 9",6.7,2.0,55.758347,37.633140000000004,Басманный
1356,Панчо-пицца,"Бутырская, 89",6.7,2.0,55.806068999999994,37.58137,Савёловский
1357,Coffee Bean,"Сретенка, 22/1",6.7,1.0,55.769514,37.632619,Красносельский
1359,Шоколад,"Волхонка, 6",6.7,2.0,55.748493,37.608526,Хамовники
1360,Андерсон для пап,"М.Грузинская, 15, стр. 1",6.7,2.0,55.764328000000006,37.571525,Пресненский
1361,Большой,"Петровка, 3/6, стр. 2",6.7,4.0,55.76126899999999,37.618039,Тверской
1362,Ласточка,"Лужнецкая наб., причал «Лужники. Северный»",6.7,4.0,55.71133100000001,37.559155,Хамовники
1363,Hite,"ул. 1905 года, 2",6.7,3.0,55.755003,37.560413,Пресненский
1364,Южное,"Ленинский просп., 87",6.7,2.0,55.679345999999995,37.533742,Ломоносовский
1365,Courvoisier,"М.Сухаревская пл., 8",6.7,2.0,55.77266899999999,37.630059,Мещанский
1366,Братья Караваевы,"Солянка, 4, стр. 4",6.7,1.0,55.753701,37.637209999999996,Таганский
1367,Nobu,"Б.Дмитровка, 20, стр. 1",6.7,4.0,55.762804,37.613808,Тверской
1368,Shishas Happy Bar,"ул. 1905 года, 10, стр. 1",6.7,2.0,55.76799499999999,37.558625,Пресненский
1369,Ботик Петра,"Лесная, 45",6.7,3.0,55.780942,37.591592999999996,Тверской
1370,Пив & Ко,"Народного Ополчения, 28, корп. 1",6.7,2.0,55.781443,37.481567,Хорошёво-Мнёвники
1372,Mondriaan Bar,"Петровка, 30/7",6.7,2.0,55.768071,37.614401,Тверской
1373,Nofar,"Кутузовский просп., 12, стр. 3, БЦ «Бадаевский»",6.7,3.0,55.750515,37.556379,Дорогомилово
1374,Бабель,"1-й Николощеповский пер., 6, стр. 2, вход из 1-го Смоленского переулка",6.7,4.0,55.748706000000006,37.580544,Арбат
1375,Брайтон,"Петровско-Разумовский пр., 29, отель «Брайтон»",6.7,2.0,55.804142000000006,37.56158,Савёловский
1377,Черетто,"Ленинградский просп., 37, стр. 6",6.7,3.0,55.79428000000001,37.543533000000004,Хорошёвский
1378,Штирбирлиц,"ул. 1905 года, 4",6.7,2.0,55.765225,37.561589,Пресненский
1379,Пирог мясника,"Н.Арбат, 17",6.7,2.0,55.752141,37.590713,Арбат
1380,Хлеб насущный,"Ниж.Радищевская, 5, стр. 3",6.7,2.0,55.742027,37.653433,Таганский
1381,Гусятникофф,"Александра Солженицына, 2а",6.7,4.0,55.741987,37.656613,Таганский
1382,Джон Булл,"Красная Пресня, 25, стр. 1",6.7,3.0,55.76228199999999,37.564877,Пресненский
1383,Чемодан,"Гоголевский б-р, 25",6.7,4.0,55.748376,37.599256,Арбат
1384,Бавариус,"Тверская, 30/2, стр. 1",6.7,3.0,55.769798,37.597836,Тверской
1385,Хлеб насущный,"пл. Киевского Вокзала, 2, ТРЦ «Европейский», 1 этаж",6.6,2.0,55.744631999999996,37.566072,Дорогомилово
1386,Цурцум,"4-й Сыромятнический пер., 1, стр. 6, ЦСИ «Винзавод»",6.6,2.0,55.755175,37.665228000000006,Басманный
1387,Beermarket,"Бутырская, 69",6.6,2.0,55.802496999999995,37.582609999999995,Савёловский
1390,Caffe del parco,"Комсомольский просп., 7/3, корп. 1",6.6,1.0,55.730953,37.592195000000004,Хамовники
1391,Ваниль,"Остоженка, 1/9",6.6,4.0,55.744029000000005,37.602373,Хамовники
1394,Costa Coffee,"Волхонка, 9, стр. 1",,1.0,55.747089,37.607628000000005,Хамовники
1398,Costa Coffee,"Ходынский б-р, 4, ТРЦ «Авиапарк»",,1.0,55.790464,37.530409000000006,Хорошёвский
1401,Costa Coffee,"Каширское ш., 26, ТРК «Москворечье»",,1.0,55.653314,37.64613,Москворечье-Сабурово
1402,Costa Coffee,"Митинская, 16",,1.0,55.842464,37.373302,Митино
1404,Costa Coffee,"Варшавское ш., 97, ТЦ «Ритейл-парк»",,1.0,55.633221,37.624247,Чертаново Северное
1407,Costa Coffee,"1-я Тверская-Ямская, 1, в здании Министерства экономического развития РФ",,1.0,55.770051,37.595061,Тверской
1409,Costa Coffee,"Овчинниковская наб., 18/1, в здании Министерства экономического развития РФ",,1.0,55.744105000000005,37.633131,Замоскворечье
1411,Costa Coffee,"Перовская, 61а, ТЦ «Карамель»",,1.0,55.745275,37.797442,Новогиреево
1416,Mercedes Bar,"Кутузовский просп., 2/1, стр. 1, гостиница «Radisson Royal Москва», 31 этаж",6.6,4.0,55.751406,37.565713,Дорогомилово
1418,Surf Coffee,"Мясницкая, 16",6.6,1.0,55.760925,37.632511,Басманный
1419,Черетто,"Ленинский просп., 95",6.6,3.0,55.673976,37.525863,Ломоносовский
1421,Montis' Friends,"Валовая, 26, БЦ Light House, 1 этаж",6.6,2.0,55.730633999999995,37.628190000000004,Замоскворечье
1422,Камчатка,"Кузнецкий Мост, 7",6.6,2.0,55.761725,37.619171,Тверской
1423,Piccolino,"1-й Колобовский пер., 11",6.6,3.0,55.769073999999996,37.616448999999996,Тверской
1424,Кофемания,"Рождественка, 6/9/20",6.6,3.0,55.761582999999995,37.623798,Мещанский
1425,Жан-Жак,"Столешников пер., 6, стр. 1",6.6,2.0,55.76214,37.612578000000006,Тверской
1426,Флей,"Лялин пер., 8, стр. 2",6.6,3.0,55.760073999999996,37.651214,Басманный
1428,La piola,"Профсоюзная, 109, корп. 2",6.6,2.0,55.632901000000004,37.519863,Коньково
1429,Каре,"Дмитрия Ульянова, 42, стр. 1",6.6,2.0,55.681259999999995,37.589195000000004,Котловка
1432,Дориан Грей,"Кадашевская наб., 6/1",6.6,3.0,55.742706000000005,37.617734000000006,Якиманка
1433,Труффальдино,"Марксистская, 20, стр. 1",6.6,3.0,55.738231000000006,37.659775,Таганский
1434,Шпатен-хаус,"2-я Тверская-Ямская, 2",6.6,3.0,55.770654,37.596606,Тверской
1435,Авокадо,"Чистопрудный б-р, 12, корп. 2",6.6,2.0,55.760874,37.643498,Басманный
1437,Чугунный мост,"Пятницкая, 6, стр. 1",6.6,2.0,55.744409,37.627319,Замоскворечье
1438,T.G.I. Friday's,"Земляной Вал, 33, ТРК «Атриум», 2 этаж",6.6,2.0,55.757339,37.659164000000004,Басманный
1439,Cozy Lounge,"Спартаковская, 21",,2.0,55.77316999999999,37.677642999999996,Басманный
1440,Beverly Hills Diner,"Никольская, 10, ТЦ Nikol’skaya Plaza",6.6,2.0,55.758103000000006,37.624148,Тверской
1443,Crabber,"Бутырский Вал, 10, БЦ «Белая площадь»",,3.0,55.778461,37.585925,Тверской
1446,Crab Meet,"Мытная, 74, Даниловский рынок",,1.0,55.712112,37.620554999999996,Даниловский
1447,Crab'n'Caviar,"Н.Арбат, 11, стр. 1, ТД «Новоарбатский»",,1.0,55.752217,37.595132,Арбат
1448,Crab Pub,"Космодамианская наб., 52/5",,2.0,55.732944999999994,37.643929,Замоскворечье
1450,Craft & Draft,"1-й Гончарный пер., 3, стр. 3",,2.0,55.741602,37.652301,Таганский
1452,Craft Kitchen,"пл. Киевского Вокзала, 2, ТРЦ «Европейский», 2 этаж",,3.0,55.744631999999996,37.566072,Дорогомилово
1453,Craftland Cultural Bar,"Александра Солженицына, 17, стр. 1",,2.0,55.743801,37.661491,Таганский
